CODNUM,NUMCOM,TIPUS,CODVIA,NOMVIA,LAT,LNG
29042,205,,522,c. de les Tres Creus,41.54629395,2.11794926
392965,25A,,507,c. de València,41.5662082,2.09614321
19530,46,,1427,c. de Colom,41.54630258,2.10366238
68423,11B,,481,c. de la Verge de la Paloma,41.52622707,2.11881079
22708,120,,1020,c. del Maestrat,41.56485657,2.09953534
66287,11,,481,c. de la Verge de la Paloma,41.52624782,2.11887129
65860,11,,1069,c. de Lepant,41.5375789,2.11278919
50541,19,,716,c. de Regàs,41.53889892,2.11403153
19955,42,,1427,c. de Colom,41.54640196,2.10398478
50315,29,,1513,c. de Calassanç Duran,41.5403785,2.11638446
19954,40,,1427,c. de Colom,41.54643003,2.10404716
52978,32,,666,c. de la Saboneria,41.52862933,2.11988424
41014,44,,1427,c. de Colom,41.54633773,2.10378017
52590,14,,801,ptge. de Pere Santfeliu,41.52609796,2.11888308
393064,18B,,1242,c. de Fra Batlle,41.5534379,2.10867132
48709,168,,1520,c. de Buxeda,41.53261766,2.11242221
23175,89,,1367,c. del Doctor Balari,41.53369191,2.10677988
44332,111,,1527,c. del Bruc,41.53214619,2.11134491
393127,62B,,1163,c. de l' Himàlaia,41.57288653,2.08824436
44335,117,,1527,c. del Bruc,41.53191724,2.11145046
34376,1,,1247,c. de la Forcanada,41.57293564,2.08834406
22819,123,,1527,c. del Bruc,41.53169199,2.11156191
77879,10A,,1487,pl. de Ca n'Oriac,41.566331,2.08671947
56092,10,,1487,pl. de Ca n'Oriac,41.56629695,2.08675532
108455,70,,742,c. de Puig Antich,41.55378223,2.07552656
394055,14B,,867,c. d' Olzinelles,41.53629803,2.11972615
45003,93,,1367,c. del Doctor Balari,41.53355724,2.10686633
66308,18,,1018,c. de Magí Colet,41.52565434,2.11925315
21148,170,,1458,c. de Castellar del Vallès,41.55963905,2.10043628
10195,26,,1085,c. de Juvenal,41.55590952,2.08463604
10000,105,,1165,c. de Gustavo Adolfo Bécquer,41.55129696,2.08301064
393122,36A,,1412,c. de Concepción Arenal,41.52829877,2.11847754
63981,143,,1503,c. de Ca n'Alzina,41.53595643,2.13320943
203693,167,,1502,av. de Can Bordoll,41.53427055,2.13208984
63979,120,,1481,av. de Can Roqueta,41.5374554,2.13602473
9074,52,,1076,c. de La Palma,41.54528487,2.08654993
52687,3,,636,ptge. de Santa Perpètua,41.52805236,2.12060858
11248,59,,949,pgon. dels Merinals,41.5445869,2.08809012
30145,1,,1423,ptge. de les Columbretes,41.54470249,2.08667761
32424,13,,549,c. de Tenerife,41.54556979,2.08947516
52513,3,,1288,c. de Fatjó,41.5279975,2.11851371
393252,1A,,1288,c. de Fatjó,41.52794416,2.1183177
52512,1,,1288,c. de Fatjó,41.52795634,2.11836235
64408,29,,457,c. de Wagner,41.5498414,2.08192681
9488,27,,457,c. de Wagner,41.5498145,2.08197512
30383,31,,457,c. de Wagner,41.54986724,2.08187439
9489,25,,457,c. de Wagner,41.5497876,2.08202358
9490,23,,457,c. de Wagner,41.54976245,2.08206894
30242,8,,1123,c. de Johann Sebastian Bach,41.5497528,2.0817055
9575,32,,1443,c. de Chopin,41.549992,2.08277388
9574,10,,1581,c. de Beethoven,41.54991822,2.08261061
52979,34,,666,c. de la Saboneria,41.52858512,2.11990835
45722,87,,1445,c. de Cervantes,41.54083348,2.10807256
46045,90,,606,c. de Sant Pau,41.54090343,2.10851419
76279,3A,,1443,c. de Chopin,41.55065031,2.08168692
68632,3B,,1443,c. de Chopin,41.55063884,2.08171641
66913,8,,1238,c. de Francesc Casañas,41.52982287,2.12047796
46046,94,,606,c. de Sant Pau,41.54045447,2.10871897
76447,33,,594,c. de Sarasate,41.55225939,2.08089731
58297,92,,606,c. de Sant Pau,41.54063731,2.10863236
46182,42,,450,c. de Zurbano,41.54035968,2.1086135
112822,298,,1295,rda. d' Europa,41.55598941,2.08125707
46186,50,,450,c. de Zurbano,41.54027714,2.10829499
69133,19B,,1073,c. de Las Navas,41.56178124,2.10167899
17623,8,,670,ptge. de Rovira i Virgili,41.52863812,2.10287355
74061,63,,1234,c. de Francesc Layret,41.55940354,2.10134414
74060,61,,1234,c. de Francesc Layret,41.55938717,2.10118903
56969,5,,583,c. de la Selva,41.5666338,2.09342532
77822,12,,458,c. de Walter Benjamin,41.56102992,2.07630156
77819,10,,458,c. de Walter Benjamin,41.56098218,2.07631964
77817,8,,458,c. de Walter Benjamin,41.56093088,2.07634155
9854,29,,621,c. de Sant Isidor,41.55432148,2.08628105
9851,43,,621,c. de Sant Isidor,41.55412067,2.08570112
75558,18,,1029,c. de Lucà,41.55312456,2.08737956
75557,16,,1029,c. de Lucà,41.55311778,2.08746864
32931,13,,853,c. d' Ovidi,41.55358908,2.0876215
45910,81,,1072,c. de Latorre,41.5385416,2.11010524
49918,22,,935,c. de Miquel Servet,41.53342808,2.116399
49888,5,,935,c. de Miquel Servet,41.53339484,2.11583429
49889,7,,935,c. de Miquel Servet,41.53339995,2.11585429
74831,48,,1046,av. de Lluís Companys,41.5529713,2.08793524
15018,160,,1450,c. de Cellers,41.53936705,2.09929773
393334,5B,,583,c. de la Selva,41.56669128,2.09349112
77870,39,,1145,c. del Jardí,41.54542384,2.11119147
30658,1,,996,c. de Marcial,41.55370645,2.08709864
30662,9,,996,c. de Marcial,41.55357002,2.08670705
108442,44,,742,c. de Puig Antich,41.55426177,2.07421654
108447,54,,742,c. de Puig Antich,41.55396311,2.07505521
108446,52,,742,c. de Puig Antich,41.55399737,2.0749005
108445,50,,742,c. de Puig Antich,41.55404651,2.07471968
108443,46,,742,c. de Puig Antich,41.55417714,2.07433148
393418,3B,,1572,c. de Bellsolà,41.53488345,2.11948939
106185,80B,,1303,pg. d' Espronceda,41.52852404,2.1148827
362836,11,,100175,c. del Poble Amazic,41.53971229,2.08882585
62525,585,,1587,ctra. de Barcelona,41.52770506,2.11846854
362856,51,,100175,c. del Poble Amazic,41.5398966,2.08800271
105902,3,,1572,c. de Bellsolà,41.53487313,2.11935299
66581,583,,1587,ctra. de Barcelona,41.52773639,2.1184382
67013,53,,935,c. de Miquel Servet,41.53397023,2.11793865
67012,55,,935,c. de Miquel Servet,41.53398103,2.11797835
261777,126,,58539,c. de Londres,41.55892134,2.07874808
51596,276,,1388,c. de Covadonga,41.54791298,2.11651827
27417,5,,1672,c. d' Alfons Sala,41.55004376,2.11442085
395468,14B,,1242,c. de Fra Batlle,41.55330944,2.1087721
44957,44,,1520,c. de Buxeda,41.53719572,2.11029412
110203,578,,542,ctra. de Terrassa,41.55212065,2.07155986
110171,528,,542,ctra. de Terrassa,41.55145538,2.07412421
403367,35B,,1635,c. d' Antonio Vico,41.54926556,2.08499095
65856,19,,1069,c. de Lepant,41.5375288,2.11260404
395504,32B,,1238,c. de Francesc Casañas,41.52924621,2.12137249
65907,18,,1069,c. de Lepant,41.53764598,2.11260548
66805,36,,1238,c. de Francesc Casañas,41.52913375,2.12151274
66807,40,,1238,c. de Francesc Casañas,41.52906754,2.12159511
39246,13,,987,c. de Maria Antònia Salvà,41.53474897,2.10142166
18077,56,,988,c. de Marià Aguiló,41.53472854,2.10187732
18076,52,,988,c. de Marià Aguiló,41.53479945,2.1021399
39235,60,,988,c. de Marià Aguiló,41.53467101,2.10166528
313510,1-LL,,1265,pl. de Fiveller,41.53841141,2.10004381
72696,78,,1184,c. de Gràcia,41.5491683,2.10589442
72692,72,,1184,c. de Gràcia,41.5491489,2.10590327
78661,5,,1232,c. de Francesc Sabaté,41.55430896,2.07579248
78607,5,,981,c. de Marie Curie,41.55480833,2.07533055
177543,2,,23548,c. de Viena,41.55952263,2.08088149
177545,4,,23548,c. de Viena,41.55951294,2.08084377
211088,40,,23548,c. de Viena,41.55938284,2.08033864
211087,38,,23548,c. de Viena,41.55939062,2.0803665
113193,180,,595,c. de Sarajevo,41.5632367,2.07950636
18047,276,,797,c. de Permanyer,41.53596919,2.10174319
66808,42,,1238,c. de Francesc Casañas,41.52903659,2.12163353
19691,28,,715,c. de la Reina Elionor,41.54182905,2.10157231
19688,20,,715,c. de la Reina Elionor,41.54199409,2.10149492
40755,22,,715,c. de la Reina Elionor,41.54196058,2.10151063
26279,100,,1105,c. de Josep Comas,41.52527578,2.11306195
28008,21,,1345,pg. del Dos de Maig,41.53192569,2.1196534
60946,87,,1285,c. de Feijoo,41.52662602,2.11147313
10886,60,,1693,c. d' Agustí Bartra,41.57496657,2.08187818
19734,5,,615,c. de Sant Jordi,41.5429256,2.10209758
52828,19,,1345,pg. del Dos de Maig,41.53196085,2.11963315
48965,246,,1240,c. de Fra Luis de León,41.53235421,2.11699544
393658,11A,,1102,c. de Josep Guardiet,41.52578587,2.10768795
19739,28,,927,ctra. de Molins de Rei,41.54269488,2.10232907
19740,30,,927,ctra. de Molins de Rei,41.54267693,2.10231444
65237,16,,625,c. de Santiago de Compostel·la,41.52611093,2.11741401
19737,24,,927,ctra. de Molins de Rei,41.54281771,2.10232659
19738,26,,927,ctra. de Molins de Rei,41.54275106,2.10233031
12417,2,,993,c. de la Mare de les Aigües,41.56079717,2.09174573
65247,62,,481,c. de la Verge de la Paloma,41.52574786,2.11703614
65243,54,,481,c. de la Verge de la Paloma,41.52581885,2.11724308
109660,8,,1419,c. del Comte de Reus,41.54718237,2.11725231
22868,2,,1702,c. de l' Abat Oliba,41.5314851,2.10881592
34723,67,,1592,c. dels Balcans,41.57389769,2.09022052
33803,19,,1250,c. de Font i Sagué,41.56162279,2.09088783
75210,10,,1142,c. de Jaume I,41.55773181,2.09416425
69751,91,,1025,c. de la Lusitània,41.55991592,2.09126011
392251,4,,113695,pl. de la Farinera,41.5472494,2.1165056
63082,1,,1259,c. del Fluvià,41.55011469,2.12372457
71057,32,,611,c. de Sant Maties,41.55388103,2.10679266
24458,21,,1484,c. de Can Puiggener,41.55360395,2.10726764
24484,19,,1484,c. de Can Puiggener,41.55354783,2.10725109
24513,15,,554,c. del Taulí,41.55333633,2.10756362
74563,11,,672,rda. de la Roureda,41.56753641,2.08432543
24586,11,,1336,ptge. d' Edgardo Ricetti,41.55283258,2.1075898
24585,13,,1336,ptge. d' Edgardo Ricetti,41.5528749,2.1075604
112653,42,,672,rda. de la Roureda,41.56702075,2.08385828
24584,15,,1336,ptge. d' Edgardo Ricetti,41.55291875,2.1075338
24580,23,,1336,ptge. d' Edgardo Ricetti,41.55308482,2.10744742
24581,21,,1336,ptge. d' Edgardo Ricetti,41.55304724,2.10747132
24582,19,,1336,ptge. d' Edgardo Ricetti,41.55300068,2.10749459
24583,17,,1336,ptge. d' Edgardo Ricetti,41.55295926,2.10751942
47531,28,,609,c. de Sant Miquel,41.5536719,2.10681905
113809,28,,759,c. de Praga,41.56408762,2.08537616
23922,32,,1698,c. de l' Advocat Cirera,41.54587651,2.10707515
67883,6B,,1142,c. de Jaume I,41.55793467,2.09491661
69643,32A,,1698,c. de l' Advocat Cirera,41.54587284,2.10703906
46685,24,,1536,c. de la Borriana,41.5475858,2.10913649
59813,12,,617,c. de Sant Joan,41.54805555,2.10943239
59812,10,,617,c. de Sant Joan,41.54809779,2.10941908
59871,17,,1384,c. de la Creueta,41.54881014,2.11028309
59870,19,,1384,c. de la Creueta,41.5488308,2.11033008
59869,21,,1384,c. de la Creueta,41.54884414,2.11036114
59868,23,,1384,c. de la Creueta,41.54886307,2.11040477
59867,25,,1384,c. de la Creueta,41.54888238,2.1104489
59863,41,,1384,c. de la Creueta,41.54906728,2.11087377
59866,35,,1384,c. de la Creueta,41.54899725,2.11071394
61955,71,,1384,c. de la Creueta,41.54956585,2.11204249
61954,75,,1384,c. de la Creueta,41.54959947,2.11212368
61953,77,,1384,c. de la Creueta,41.54961673,2.11216531
61947,89,,1384,c. de la Creueta,41.54972973,2.11243689
61959,65,,1384,c. de la Creueta,41.54946794,2.11180871
61946,91,,1384,c. de la Creueta,41.54974496,2.11247368
61958,67,,1384,c. de la Creueta,41.54952476,2.11194487
61957,69,,1384,c. de la Creueta,41.54954517,2.11199299
61951,81,,1384,c. de la Creueta,41.54965365,2.11225333
61950,83,,1384,c. de la Creueta,41.54967281,2.11229966
76507,79B,,1384,c. de la Creueta,41.5496332,2.11220462
61949,85,,1384,c. de la Creueta,41.54969138,2.11234438
61948,87,,1384,c. de la Creueta,41.54971208,2.11239419
393744,37C,,1080,c. de Lacy,41.54433929,2.11169965
395407,48B,,516,c. de Turina,41.55055043,2.08356119
21170,30,,1696,c. d' Agnès Armengol,41.55703094,2.10450466
21169,28,,1696,c. d' Agnès Armengol,41.55700139,2.1044683
57656,31,,1696,c. d' Agnès Armengol,41.55723265,2.10454717
41471,70,,1695,c. de l' Agricultura,41.55296935,2.10032066
8971,22,,1693,c. d' Agustí Bartra,41.57422956,2.08034078
269832,53B,,1013,c. Major,41.55568371,2.10061947
12534,35,,962,c. de Mauberme,41.56597457,2.08763486
8751,10,,1688,c. d' Albéniz,41.54994942,2.08095654
8752,12,,1688,c. d' Albéniz,41.54999736,2.08099586
8750,8,,1688,c. d' Albéniz,41.5498878,2.08090599
10031,44,,1688,c. d' Albéniz,41.55091617,2.08175818
29247,17,,955,c. de Meranges,41.54734228,2.12780396
34630,58,,886,rda. de Navacerrada,41.57045093,2.09187593
68776,5B,,1677,c. d' Alcubierre,41.57107481,2.09097856
13853,5,,1677,c. d' Alcubierre,41.57109118,2.09099827
68779,33B,,1677,c. d' Alcubierre,41.57182387,2.09187842
72796,72,,1696,c. d' Agnès Armengol,41.55785448,2.10550684
21609,179,,1489,c. del Canonge Joncar,41.55891446,2.10266632
21608,181,,1489,c. del Canonge Joncar,41.55894006,2.10262883
25493,84,,1657,c. d' Amílcar Barca,41.56562075,2.10737402
25492,82,,1657,c. d' Amílcar Barca,41.56562045,2.10733475
25491,80,,1657,c. d' Amílcar Barca,41.56561968,2.1072823
57006,100,,1675,c. d' Alemanya,41.54157424,2.10521824
56476,63,,1654,c. dels Andes,41.57424181,2.09071049
56480,55,,1654,c. dels Andes,41.57409238,2.09053348
56479,57,,1654,c. dels Andes,41.57412987,2.09057812
14762,35,,1654,c. dels Andes,41.57332059,2.08961807
14180,27,,1654,c. dels Andes,41.57318892,2.08946369
14182,23,,1654,c. dels Andes,41.57311918,2.08938175
14179,29,,1654,c. dels Andes,41.57322235,2.08950252
14764,31,,1654,c. dels Andes,41.57325335,2.08953911
14185,17,,1654,c. dels Andes,41.57301155,2.0892553
67792,11B,,1654,c. dels Andes,41.57281531,2.08902473
12225,15,,1653,c. d' Andorra,41.56340546,2.08950885
12224,17,,1653,c. d' Andorra,41.56344649,2.08948663
12226,13,,1653,c. d' Andorra,41.56333679,2.08954587
67680,23B,,1653,c. d' Andorra,41.56365199,2.08937554
12219,27,,1653,c. d' Andorra,41.56372144,2.08933805
12218,29,,1653,c. d' Andorra,41.5637631,2.08931552
12574,57,,1653,c. d' Andorra,41.56453779,2.0888952
12565,75,,1653,c. d' Andorra,41.56498001,2.08865566
12564,77,,1653,c. d' Andorra,41.56501975,2.08863431
12674,78,,1653,c. d' Andorra,41.56508826,2.08875877
12560,91,,1653,c. d' Andorra,41.56535067,2.08845495
28807,38,,622,c. de Santiga,41.54484091,2.12027977
59060,26,,1649,c. d' Àngel Guimerà,41.5447456,2.10843843
59059,24,,1649,c. d' Àngel Guimerà,41.54475109,2.10849083
59058,22,,1649,c. d' Àngel Guimerà,41.54475638,2.10853659
59061,28,,1649,c. d' Àngel Guimerà,41.54474005,2.10838795
8602,45,,825,av. de la Pau,41.55890747,2.07474066
63268,5,,1646,c. de l' Anoia,41.55021391,2.12470395
67447,49,,1696,c. d' Agnès Armengol,41.55825744,2.10579367
17591,104,,1559,c. de Bernat Metge,41.52910388,2.10140469
17579,15,,1644,c. d' Anselm Turmeda,41.52857778,2.10059858
28798,48,,622,c. de Santiga,41.54470851,2.12034692
54248,42,,622,c. de Santiga,41.54477544,2.12031305
28806,68,,921,c. dels Montcada,41.54501506,2.12018324
28805,66,,921,c. dels Montcada,41.54500678,2.12013948
54207,60,,921,c. dels Montcada,41.5449719,2.1199478
28794,46,,921,c. dels Montcada,41.54491019,2.11961041
28792,42,,921,c. dels Montcada,41.54489251,2.1195135
28793,44,,921,c. dels Montcada,41.54490088,2.11955982
25023,160,,1696,c. d' Agnès Armengol,41.55812584,2.10583581
25022,158,,1696,c. d' Agnès Armengol,41.5580931,2.10579628
25028,170,,1696,c. d' Agnès Armengol,41.55830586,2.10605597
25027,168,,1696,c. d' Agnès Armengol,41.55827667,2.1060196
25026,166,,1696,c. d' Agnès Armengol,41.55823837,2.10597279
25025,164,,1696,c. d' Agnès Armengol,41.55820724,2.10593506
25024,162,,1696,c. d' Agnès Armengol,41.5581729,2.1058935
20630,12,,1695,c. de l' Agricultura,41.55164864,2.10225309
20628,8,,1695,c. de l' Agricultura,41.55157604,2.10235969
20627,6,,1695,c. de l' Agricultura,41.55154121,2.10241059
20634,20,,1695,c. de l' Agricultura,41.55179468,2.10203866
20633,18,,1695,c. de l' Agricultura,41.55175843,2.10209179
20632,16,,1695,c. de l' Agricultura,41.55172198,2.10214551
20631,14,,1695,c. de l' Agricultura,41.5516878,2.10219539
54206,40,,921,c. dels Montcada,41.54488015,2.11944509
28824,165,,1540,c. de Bonavista,41.54457469,2.11939584
28822,171,,1540,c. de Bonavista,41.54446251,2.11945243
28770,180,,1540,c. de Bonavista,41.54434806,2.1193505
28614,41,,921,c. dels Montcada,41.5449811,2.11936049
106227,27,,921,c. dels Montcada,41.54492011,2.11900558
28615,145,,1540,c. de Bonavista,41.54503348,2.11916772
28617,141,,1540,c. de Bonavista,41.54509831,2.11913409
28618,139,,1540,c. de Bonavista,41.54515398,2.11910739
142490,29B,,1415,c. dels Comtes,41.54560634,2.11839241
28560,35,,1415,c. dels Comtes,41.54563145,2.11852649
28566,23,,1415,c. dels Comtes,41.54557493,2.11822488
68506,27B,,1415,c. dels Comtes,41.54559742,2.11834552
28567,21,,1415,c. dels Comtes,41.54556766,2.11818556
51085,1,,921,c. dels Montcada,41.54461029,2.1171245
28593,115,,1540,c. de Bonavista,41.54585195,2.11876205
28597,107,,1540,c. de Bonavista,41.54598827,2.11869343
105049,260,,522,c. de les Tres Creus,41.54613765,2.11799431
29039,215,,522,c. de les Tres Creus,41.54624148,2.11892575
61079,25,,979,c. del Marquès de Comillas,41.54028693,2.11478635
61015,163,,659,c. de Sallarès i Pla,41.54153337,2.11473725
61469,101,,1533,c. de Bosch i Cardellach,41.54277888,2.11456854
79523,97,,1533,c. de Bosch i Cardellach,41.54275706,2.11448846
61503,83,,1166,c. de Gurrea,41.54343639,2.1139494
61521,81,,1166,c. de Gurrea,41.54342281,2.11389596
61523,77,,1166,c. de Gurrea,41.54339909,2.11380161
61524,75,,1166,c. de Gurrea,41.54338758,2.11375516
61560,100,,1166,c. de Gurrea,41.54357412,2.11483515
79439,107,,1166,c. de Gurrea,41.543649,2.11474244
22027,19,,844,c. de Pàndols,41.56048581,2.10486003
79264,164,,1080,c. de Lacy,41.54492262,2.11533337
79265,166,,1080,c. de Lacy,41.54493186,2.11538234
79311,186,,1080,c. de Lacy,41.54503339,2.11593202
24221,13,,603,c. de Sant Quirze,41.54656503,2.10724312
57322,56,,1207,c. de Garcilaso,41.54998265,2.10401493
57323,58,,1207,c. de Garcilaso,41.54996712,2.10396136
68418,33B,,1018,c. de Magí Colet,41.52542425,2.11893776
66164,31,,1018,c. de Magí Colet,41.52544217,2.11898877
66171,17,,1018,c. de Magí Colet,41.52557811,2.1193759
66170,19,,1018,c. de Magí Colet,41.52556169,2.11932914
393954,25B,,1018,c. de Magí Colet,41.52549538,2.11914031
393955,10B,,487,c. de Vasco da Gama,41.52535082,2.11970425
65205,42,,625,c. de Santiago de Compostel·la,41.52534253,2.11787884
65204,40,,625,c. de Santiago de Compostel·la,41.52538466,2.11785326
65203,38,,625,c. de Santiago de Compostel·la,41.52543222,2.11782475
65201,34,,625,c. de Santiago de Compostel·la,41.52553225,2.11776369
65200,32,,625,c. de Santiago de Compostel·la,41.52557029,2.11774093
78089,74,,651,c. de Salvat Papasseit,41.52553172,2.11849819
66285,69,,651,c. de Salvat Papasseit,41.52570187,2.11855739
66111,58,,651,c. de Salvat Papasseit,41.52587224,2.11829268
78046,13B,,481,c. de la Verge de la Paloma,41.52619448,2.11870195
66269,15,,481,c. de la Verge de la Paloma,41.52616201,2.11860539
66268,17,,481,c. de la Verge de la Paloma,41.52614437,2.11855433
66049,574,,1587,ctra. de Barcelona,41.52747649,2.1183852
66047,570,,1587,ctra. de Barcelona,41.52754927,2.11831446
66045,566,,1587,ctra. de Barcelona,41.52761345,2.11824169
62223,560,,1587,ctra. de Barcelona,41.52776428,2.11814016
23382,103,,1191,c. de Girona,41.53460657,2.10890507
394061,44A,,1427,c. de Colom,41.54636445,2.10388471
70828,13B,,1121,pl. de Joan Vilatobà,41.5275046,2.11772268
25927,12,,1121,pl. de Joan Vilatobà,41.52749654,2.11764497
70833,13,,1121,pl. de Joan Vilatobà,41.52750127,2.11769233
25979,16,,651,c. de Salvat Papasseit,41.5268483,2.11769247
25980,18,,651,c. de Salvat Papasseit,41.5268155,2.11769189
65173,35,,651,c. de Salvat Papasseit,41.52684012,2.11787633
62226,43,,651,c. de Salvat Papasseit,41.52665288,2.11798808
52622,94,,651,c. de Salvat Papasseit,41.52499847,2.11881783
78585,104,,651,c. de Salvat Papasseit,41.52474691,2.11896895
69811,33,,1566,c. de Berenguer el Gran,41.56221085,2.09023961
28883,84,,1215,c. de Galceran de Pinós,41.54342767,2.12057859
28889,96,,1215,c. de Galceran de Pinós,41.54350869,2.12087602
28890,98,,1215,c. de Galceran de Pinós,41.54352306,2.1209282
28673,108,,1215,c. de Galceran de Pinós,41.54362007,2.12128468
28670,100,,1215,c. de Galceran de Pinós,41.54356769,2.12109484
28686,42,,861,rda. d' Orient,41.54321727,2.12177102
28680,36,,861,rda. d' Orient,41.54340222,2.12167786
28681,37,,861,rda. d' Orient,41.54336795,2.12169503
28682,38,,861,rda. d' Orient,41.54333094,2.12171415
65637,15,,599,c. de Sant Sebastià,41.53599872,2.11315801
28683,39,,861,rda. d' Orient,41.54330371,2.12172761
28894,110,,622,c. de Santiga,41.54323248,2.12109068
28895,112,,622,c. de Santiga,41.54319892,2.12110726
28688,44,,861,rda. d' Orient,41.54315897,2.12179991
25831,2,,1168,c. del Guerriller Alzina,41.52771268,2.11731196
28896,114,,622,c. de Santiga,41.54316176,2.12112588
25835,10,,1168,c. del Guerriller Alzina,41.52770021,2.11707784
28899,120,,622,c. de Santiga,41.54304236,2.1211861
28689,45,,861,rda. d' Orient,41.54313149,2.12181371
28838,50,,1470,c. dels Cardona,41.54418852,2.1200241
29053,28,,944,c. del Metge Mir,41.54829968,2.11788348
27537,13,,944,c. del Metge Mir,41.54820829,2.11713738
27538,11,,944,c. del Metge Mir,41.54819657,2.11709647
27372,164,,1388,c. de Covadonga,41.55037227,2.11532766
27373,166,,1388,c. de Covadonga,41.5503356,2.11534508
27375,170,,1388,c. de Covadonga,41.55026383,2.11537996
27371,162,,1388,c. de Covadonga,41.55041228,2.11530847
27380,180,,1388,c. de Covadonga,41.55008069,2.11546784
27381,182,,1388,c. de Covadonga,41.55004609,2.11548432
136483,83,,400,camí de la Sèquia Monar,41.55183316,2.11867514
25837,14,,1168,c. del Guerriller Alzina,41.52769373,2.11696127
25836,12,,1168,c. del Guerriller Alzina,41.52769656,2.11702413
25839,18,,1168,c. del Guerriller Alzina,41.52768685,2.11684493
68417,47B,,801,ptge. de Pere Santfeliu,41.52707982,2.11817648
62237,51,,801,ptge. de Pere Santfeliu,41.52715149,2.118133
62236,49,,801,ptge. de Pere Santfeliu,41.52711881,2.11815289
23007,46,,1517,c. de Cabanyes,41.53339318,2.10639372
23155,32,,1517,c. de Cabanyes,41.53365872,2.10734648
23181,36,,1517,c. de Cabanyes,41.53362391,2.10722021
17719,274,,599,c. de Sant Sebastià,41.53383155,2.10489988
17718,272,,599,c. de Sant Sebastià,41.53384989,2.1049644
17720,276,,599,c. de Sant Sebastià,41.53381457,2.10483915
17698,277,,599,c. de Sant Sebastià,41.53379302,2.10518718
17685,283,,599,c. de Sant Sebastià,41.53374817,2.10502965
17687,279,,599,c. de Sant Sebastià,41.53377756,2.1051337
17725,261,,599,c. de Sant Sebastià,41.53395771,2.10577053
22919,259,,599,c. de Sant Sebastià,41.53396912,2.10581211
44150,3,,1102,c. de Josep Guardiet,41.52600765,2.10864666
76986,5,,494,c. de Vallirana,41.56204591,2.10042494
394085,3A,,1102,c. de Josep Guardiet,41.52601846,2.10871172
394086,3B,,1102,c. de Josep Guardiet,41.52598539,2.10858475
17696,70,,1517,c. de Cabanyes,41.53301222,2.10501362
362858,55,,100175,c. del Poble Amazic,41.5397205,2.08800666
362874,85,,100175,c. del Poble Amazic,41.54017717,2.08786927
106533,137,,599,c. de Sant Sebastià,41.53488714,2.10913159
23362,129,,599,c. de Sant Sebastià,41.53497509,2.10945032
23359,139,,599,c. de Sant Sebastià,41.53486783,2.10906227
50032,5,,599,c. de Sant Sebastià,41.53609104,2.11349182
65640,7,,599,c. de Sant Sebastià,41.53606388,2.11339433
65642,1,,599,c. de Sant Sebastià,41.53611718,2.1135856
68328,1A,,599,c. de Sant Sebastià,41.53613253,2.11364094
65639,9,,599,c. de Sant Sebastià,41.53605163,2.11334997
106646,1B,,599,c. de Sant Sebastià,41.53611189,2.11356626
26533,60,,652,c. de Salvany,41.53670657,2.11575087
26534,62,,652,c. de Salvany,41.536726,2.11582228
110557,60B,,652,c. de Salvany,41.53671376,2.11577757
28017,129,,652,c. de Salvany,41.53737688,2.11777537
26481,127,,652,c. de Salvany,41.5373674,2.11774115
61008,43,,1537,c. de Borrell,41.54129466,2.1151552
26753,131,,515,c. de Turull,41.54189143,2.11554116
26752,133,,515,c. de Turull,41.54186216,2.11555934
27223,121,,515,c. de Turull,41.5420495,2.11544107
26749,141,,515,c. de Turull,41.54175211,2.11562918
26751,135,,515,c. de Turull,41.54183151,2.11557886
26750,137,,515,c. de Turull,41.54179479,2.11560251
27229,129,,515,c. de Turull,41.54192546,2.11551945
61580,115,,1533,c. de Bosch i Cardellach,41.54299539,2.11534413
79507,108,,515,c. de Turull,41.54321139,2.11457353
79506,106,,515,c. de Turull,41.543244,2.11455326
79398,141,,1166,c. de Gurrea,41.54410997,2.11654246
394146,20B,,1242,c. de Fra Batlle,41.55352005,2.10860762
56693,49,,634,c. de Sant Baldomer,41.54638972,2.09756043
37024,65,,634,c. de Sant Baldomer,41.5462847,2.09719241
36291,12,,1114,c. de Joaquín Costa,41.54564494,2.09721228
36303,46,,989,c. de Margenat,41.54564665,2.09744425
56594,36,,989,c. de Margenat,41.54589879,2.09831743
63898,22,,455,pl. de Xavier Sanahuja,41.56123152,2.1290181
9493,422,,542,ctra. de Terrassa,41.54945076,2.08181259
23182,43,,890,c. de Narcís Monturiol,41.53543604,2.10821406
64158,13,,455,pl. de Xavier Sanahuja,41.56138166,2.12956124
80447,521,,542,ctra. de Terrassa,41.54970843,2.07900856
66546,43,,666,c. de la Saboneria,41.52810377,2.12048089
75779,399,,542,ctra. de Terrassa,41.54852478,2.08410073
11573,326,,542,ctra. de Terrassa,41.5472012,2.08994608
11574,328,,542,ctra. de Terrassa,41.54721532,2.08989259
11575,330,,542,ctra. de Terrassa,41.54722946,2.08983939
11524,298,,542,ctra. de Terrassa,41.54693073,2.09095041
11515,282,,542,ctra. de Terrassa,41.54680942,2.09139912
11509,272,,542,ctra. de Terrassa,41.54672578,2.09170998
11479,252,,542,ctra. de Terrassa,41.5464733,2.09264348
36588,263,,542,ctra. de Terrassa,41.545987,2.09372931
15444,220,,542,ctra. de Terrassa,41.54606021,2.09463383
15409,130,,542,ctra. de Terrassa,41.54477225,2.09892621
15454,149,,542,ctra. de Terrassa,41.54469664,2.0986199
53370,70,,935,c. de Miquel Servet,41.53396547,2.11836252
53369,68,,935,c. de Miquel Servet,41.53396027,2.11834326
394360,72,,935,c. de Miquel Servet,41.53397511,2.11839827
67017,56,,935,c. de Miquel Servet,41.53392568,2.11821669
67015,52,,935,c. de Miquel Servet,41.5338663,2.11799887
67014,50,,935,c. de Miquel Servet,41.53383676,2.11789049
65836,48,,935,c. de Miquel Servet,41.53380548,2.11777756
77932,596,,542,ctra. de Terrassa,41.55283314,2.0689439
110211,594,,542,ctra. de Terrassa,41.55273148,2.06943438
108912,119,,825,av. de la Pau,41.55347157,2.06862768
10004,97,,1165,c. de Gustavo Adolfo Bécquer,41.5511051,2.08325304
15877,60,,1494,pg. de Can Feu,41.54298091,2.09373771
35858,62,,1494,pg. de Can Feu,41.54293734,2.09373073
32339,64,,1494,pg. de Can Feu,41.54290104,2.09372492
24465,11,,1484,c. de Can Puiggener,41.55341437,2.10721132
23049,176,,541,c. de Tetuan,41.53696649,2.10704402
27409,19,,1672,c. d' Alfons Sala,41.54980701,2.11453196
27408,31,,1672,c. d' Alfons Sala,41.54955232,2.11465273
23323,171,,541,c. de Tetuan,41.53691884,2.10730921
23320,177,,541,c. de Tetuan,41.53688214,2.10717411
23318,181,,541,c. de Tetuan,41.53685612,2.10707701
23317,183,,541,c. de Tetuan,41.53684381,2.10703133
45538,118,,541,c. de Tetuan,41.53731773,2.10833638
65956,12,,541,c. de Tetuan,41.53840781,2.11233037
65748,115,,1588,av. de Barberà,41.53674456,2.11396783
65949,28,,1588,av. de Barberà,41.53861392,2.11277397
65652,166,,1588,av. de Barberà,41.53583354,2.11412124
65651,164,,1588,av. de Barberà,41.53586931,2.11410457
65650,162,,1588,av. de Barberà,41.53590398,2.11408748
65337,356,,1588,av. de Barberà,41.5319104,2.11602026
15107,161,,1157,rbla. d' Ibèria,41.53833811,2.09701372
15199,106,,1157,rbla. d' Ibèria,41.54049989,2.09774838
15194,92,,1157,rbla. d' Ibèria,41.54072194,2.09786224
15195,94,,1157,rbla. d' Ibèria,41.54067881,2.09783985
15450,51,,1157,rbla. d' Ibèria,41.54292728,2.09938387
21456,50,,470,c. de Vila Cinca,41.55563522,2.10463674
21432,71,,470,c. de Vila Cinca,41.55589544,2.10474638
21191,99,,470,c. de Vila Cinca,41.5563892,2.10533854
24973,120,,470,c. de Vila Cinca,41.55656749,2.1057522
25284,125,,470,c. de Vila Cinca,41.5568724,2.10591748
47945,151,,470,c. de Vila Cinca,41.55738018,2.10652661
394375,539V,,542,ctra. de Terrassa,41.55094375,2.07521265
226496,60,,886,rda. de Navacerrada,41.57081671,2.09127088
26352,526,,1587,ctra. de Barcelona,41.52850564,2.11734573
26351,522,,1587,ctra. de Barcelona,41.52857196,2.11728531
70352,546,,1587,ctra. de Barcelona,41.52810408,2.11773771
25798,548,,1587,ctra. de Barcelona,41.52807532,2.11776607
65584,547,,1587,ctra. de Barcelona,41.53011233,2.1161167
19356,104,,631,c. de Sant Cugat,41.54391993,2.10335776
216481,10,,39017,c. de Bèlgica,41.54272287,2.08181004
63789,32,,770,av. de Polinyà,41.56063215,2.12796302
109447,77,,1559,c. de Bernat Metge,41.52968346,2.10165295
106789,79,,1559,c. de Bernat Metge,41.52957701,2.1017108
216483,14,,39017,c. de Bèlgica,41.54250217,2.08174169
21993,265,,707,c. de Ribot i Serra,41.55991111,2.10254582
66626,224,,1169,c. de Güell i Ferrer,41.53255915,2.11806451
76304,56B,,669,pg. de Rubió i Ors,41.53203282,2.11815906
76310,56,,669,pg. de Rubió i Ors,41.5320242,2.11812788
76306,58B,,669,pg. de Rubió i Ors,41.5320454,2.11820454
76312,60,,669,pg. de Rubió i Ors,41.53205091,2.1182248
66677,103,,1597,c. d'en Bac de Roda,41.53192257,2.11877483
62464,58,,666,c. de la Saboneria,41.52787325,2.12047503
62468,66,,666,c. de la Saboneria,41.52768689,2.12065593
66570,70,,666,c. de la Saboneria,41.52761559,2.12072502
66463,106,,666,c. de la Saboneria,41.5266381,2.12209069
62382,130,,666,c. de la Saboneria,41.5260552,2.12293125
62383,132,,666,c. de la Saboneria,41.52602818,2.12297036
62298,108,,624,c. de Santiago Rusiñol,41.52631659,2.12091649
62297,106,,624,c. de Santiago Rusiñol,41.52635157,2.12088203
62425,8,,604,pl. de Sant Pius X,41.52613541,2.12116697
62259,106,,1412,c. de Concepción Arenal,41.52623669,2.12037279
77869,41,,624,c. de Santiago Rusiñol,41.52764259,2.11979571
137164,35,,385,camí del Pont de Berard,41.55118162,2.07047757
137163,33,,385,camí del Pont de Berard,41.55105587,2.07099594
395091,33B,,71,Pont de Berard,41.55075033,2.07032458
395092,33A,,71,Pont de Berard,41.55066462,2.0705757
20156,108,,1316,c. de l' Escola Pia,41.54818041,2.10054169
20153,104,,1316,c. de l' Escola Pia,41.54820728,2.10063551
20157,110,,1316,c. de l' Escola Pia,41.54816598,2.10049122
20025,189,,1316,c. de l' Escola Pia,41.5479013,2.09990492
20023,193,,1316,c. de l' Escola Pia,41.54787292,2.09980705
20020,199,,1316,c. de l' Escola Pia,41.54783125,2.09965986
64703,4,,1549,c. Blau,41.56146004,2.09413673
64702,2,,1549,c. Blau,41.56148793,2.09414601
62734,32,,1238,c. de Francesc Casañas,41.52923109,2.12139159
300294,19B,,445,Aeroport de Sabadell,41.51808613,2.10537017
135722,14,,447,Autopista C-58,41.51817663,2.09783098
216034,44,,9258,c. del Kurdistan,41.54504987,2.0844459
216033,42,,9258,c. del Kurdistan,41.54494311,2.08455881
20304,97,,1096,c. de Josep Renom,41.54988354,2.10094585
20305,95,,1096,c. de Josep Renom,41.54989412,2.10098378
20307,91,,1096,c. de Josep Renom,41.54993635,2.10113648
20303,99,,1096,c. de Josep Renom,41.54987592,2.10091868
69046,113B,,1096,c. de Josep Renom,41.54965507,2.10014807
20114,107,,1096,c. de Josep Renom,41.54970167,2.10031143
20111,113,,1096,c. de Josep Renom,41.54966226,2.10017355
105068,131,,1397,c. de Corominas,41.55057117,2.10257788
20377,141,,1397,c. de Corominas,41.55075319,2.10247909
67999,125B,,1397,c. de Corominas,41.55047071,2.10263233
60121,41,,626,c. de Sant Honorat,41.55169853,2.10951697
60223,44,,626,c. de Sant Honorat,41.55198903,2.11034755
60364,85,,626,c. de Sant Honorat,41.55246074,2.11104403
62166,132,,657,c. de la Salut,41.55198966,2.1117894
60422,112,,657,c. de la Salut,41.55164172,2.11143707
60423,114,,657,c. de la Salut,41.55167382,2.1114721
59485,49,,657,c. de la Salut,41.55050605,2.10963699
59486,47,,657,c. de la Salut,41.55047561,2.1095916
59483,51,,657,c. de la Salut,41.55053504,2.10968154
401032,3B,,808,pl. de Pep Ventura,41.55417859,2.10770011
31550,56,,1693,c. d' Agustí Bartra,41.57490033,2.08161515
71463,89,,1329,c. d' Elcano,41.52655309,2.11357142
18529,27,,469,c. de Viladomat,41.53988764,2.10453378
24389,19,,915,c. de Montllor i Pujal,41.5525713,2.10662379
105868,44B,,1540,c. de Bonavista,41.54790642,2.11761231
65270,42,,481,c. de la Verge de la Paloma,41.52596942,2.1176815
138048,4,,9303,camí de la Serra de Galliners,41.5097553,2.09381748
30065,40,,1009,c. de Malta,41.54791156,2.08289731
138051,10,,9303,camí de la Serra de Galliners,41.50996748,2.09591253
31169,11,,710,c. de Rialb,41.56902912,2.08106067
138054,16,,9303,camí de la Serra de Galliners,41.51017053,2.09842226
138057,22,,9303,camí de la Serra de Galliners,41.50873477,2.10192472
395521,174V,,1275,c. de Ferran Casablancas,41.53947207,2.10766428
65744,125,,1588,av. de Barberà,41.53645149,2.11410927
395322,29V,,1389,c. de Costabona,41.57096647,2.08069368
387762,6B,,1094,c. de Jovellanos,41.5477057,2.10564161
138701,38,,9303,camí de la Serra de Galliners,41.50734519,2.104096
138703,32,,9303,camí de la Serra de Galliners,41.50749552,2.10370035
140638,40,,9303,camí de la Serra de Galliners,41.50721006,2.10437472
140641,36,,9303,camí de la Serra de Galliners,41.50742379,2.10390695
76868,31,,710,c. de Rialb,41.56971246,2.07970535
17757,201,,1069,c. de Lepant,41.53557533,2.10546915
17750,215,,1069,c. de Lepant,41.535487,2.10514063
17755,205,,1069,c. de Lepant,41.5355499,2.10537506
17754,207,,1069,c. de Lepant,41.53553624,2.10532453
17753,209,,1069,c. de Lepant,41.5355246,2.10528148
17752,211,,1069,c. de Lepant,41.5355119,2.10523393
395323,10V,,1697,c. d' Àger,41.57006886,2.08103629
225968,14,,1697,c. d' Àger,41.57060978,2.08015593
137864,16,,1697,c. d' Àger,41.57040653,2.07979803
136665,33,,9323,c. de Can Manent,41.54220117,2.13518033
395325,14V,,1697,c. d' Àger,41.57094772,2.0796414
395324,12V,,1697,c. d' Àger,41.57045796,2.08038248
395326,18V,,1697,c. d' Àger,41.57028948,2.07997655
23259,161,,1069,c. de Lepant,41.53591771,2.10672402
23258,163,,1069,c. de Lepant,41.5359055,2.10668032
395328,16V,,1697,c. d' Àger,41.56984188,2.08076845
23251,177,,1069,c. de Lepant,41.53580791,2.10631848
23249,181,,1069,c. de Lepant,41.53577923,2.1062134
395524,89V,,1339,c. de Duran i Sors,41.53918095,2.10780611
30102,114,,1009,c. de Malta,41.54584079,2.08470113
18987,180,,797,c. de Permanyer,41.53761984,2.10094538
18986,178,,797,c. de Permanyer,41.53765835,2.10092657
18989,184,,797,c. de Permanyer,41.53754138,2.10098297
18988,182,,797,c. de Permanyer,41.53758056,2.10096436
18991,188,,797,c. de Permanyer,41.53746486,2.1010195
18990,186,,797,c. de Permanyer,41.5375036,2.10100158
18993,190,,797,c. de Permanyer,41.53742788,2.10103772
81055,139B,,797,c. de Permanyer,41.53823544,2.10080896
40047,93,,797,c. de Permanyer,41.53955808,2.10024633
137884,24,,9303,camí de la Serra de Galliners,41.50818829,2.10256884
23252,175,,1069,c. de Lepant,41.535829,2.10639787
23216,141,,1069,c. de Lepant,41.53608765,2.10734688
23223,127,,1069,c. de Lepant,41.53618454,2.10770162
23222,129,,1069,c. de Lepant,41.53617127,2.10765308
23211,151,,1069,c. de Lepant,41.53602125,2.10710365
23210,153,,1069,c. de Lepant,41.53600766,2.10705364
23214,145,,1069,c. de Lepant,41.53606105,2.10725031
10606,249,,1429,rda. de Collsalarca,41.5695884,2.08573524
48748,39,,1433,c. de Clemència Isaura,41.5293663,2.11472216
22976,99,,1069,c. de Lepant,41.53686037,2.11016213
22971,109,,1069,c. de Lepant,41.53679244,2.10991408
75431,7,,1330,c. d' Elba,41.56285188,2.0906852
167633,13B,,455,pl. de Xavier Sanahuja,41.56137259,2.12952881
75429,5,,1330,c. d' Elba,41.56284305,2.09077685
63903,19,,455,pl. de Xavier Sanahuja,41.56127162,2.12914359
63902,20,,455,pl. de Xavier Sanahuja,41.56125696,2.12909956
181358,3C,,1423,ptge. de les Columbretes,41.54492226,2.08651971
64168,36,,1441,c. de la Cisa,41.56168984,2.12982786
395613,8B,,1441,c. de la Cisa,41.56136052,2.12884408
139809,75I,,253,ctra. de Granollers,41.56206586,2.12677517
61219,36,,515,c. de Turull,41.54496054,2.11355055
61220,38,,515,c. de Turull,41.54491979,2.11356381
64385,50,,1076,c. de La Palma,41.54532571,2.08651318
395582,31A,,1566,c. de Berenguer el Gran,41.56215389,2.09055601
395583,31B,,1566,c. de Berenguer el Gran,41.56216568,2.0904395
395584,31C,,1566,c. de Berenguer el Gran,41.5621716,2.09038442
395585,33A,,1566,c. de Berenguer el Gran,41.56217891,2.09030499
395586,33C,,1566,c. de Berenguer el Gran,41.56219585,2.09013658
395587,35A,,1566,c. de Berenguer el Gran,41.56220396,2.09005714
395588,35B,,1566,c. de Berenguer el Gran,41.5622158,2.08994697
395589,35C,,1566,c. de Berenguer el Gran,41.5622209,2.08988873
395590,37A,,1566,c. de Berenguer el Gran,41.56222902,2.0898114
395591,37B,,1566,c. de Berenguer el Gran,41.56224084,2.08969806
395592,37C,,1566,c. de Berenguer el Gran,41.56224814,2.08961758
395593,39A,,1566,c. de Berenguer el Gran,41.56225555,2.08954978
395594,39B,,1566,c. de Berenguer el Gran,41.56226506,2.08944705
395595,41A,,1566,c. de Berenguer el Gran,41.56227175,2.08938879
395596,41B,,1566,c. de Berenguer el Gran,41.56228205,2.08928499
395597,43A,,1566,c. de Berenguer el Gran,41.56228864,2.08921403
395598,43B,,1044,c. de Lluís Dalmau,41.5623012,2.08909433
395599,43C,,1044,c. de Lluís Dalmau,41.5623071,2.08903714
61289,48,,515,c. de Turull,41.5445973,2.11369243
216247,36,,39012,c. de Dinamarca,41.54935863,2.07911553
40234,156,,686,c. de Roger de Flor,41.540052,2.10458437
216233,8,,39012,c. de Dinamarca,41.54931418,2.07998315
9073,44,,1076,c. de La Palma,41.54544537,2.08640506
32398,7,,549,c. de Tenerife,41.54548025,2.08971658
25369,48,,1463,c. de Cartago,41.56200627,2.10595888
32427,9,,549,c. de Tenerife,41.54534162,2.08973854
106210,33B,,1566,c. de Berenguer el Gran,41.56219209,2.09018982
25370,50,,1463,c. de Cartago,41.56203049,2.10599815
9061,131,,1009,c. de Malta,41.54536694,2.08564181
9065,123,,1009,c. de Malta,41.54553162,2.08549359
9057,139,,1009,c. de Malta,41.5452011,2.08579103
32212,52,,1220,c. de Fuerteventura,41.54571606,2.08991168
387764,6D,,1094,c. de Jovellanos,41.54777626,2.10560354
395896,329A,,53,Riu Ripoll,41.57104892,2.09894389
395897,329B,,53,Riu Ripoll,41.57066074,2.09867425
69833,6,,1094,c. de Jovellanos,41.54775152,2.10561689
395900,329C,,53,Riu Ripoll,41.57024697,2.09838381
24069,4,,1094,c. de Jovellanos,41.54751346,2.10574512
57259,25,,1094,c. de Jovellanos,41.54864643,2.10495575
57272,53,,1094,c. de Jovellanos,41.54922804,2.1046439
395899,329D,,53,Riu Ripoll,41.56996992,2.09830727
57262,33,,1094,c. de Jovellanos,41.54881329,2.10486645
57267,43,,1094,c. de Jovellanos,41.54902066,2.10475543
71513,27,,1094,c. de Jovellanos,41.54869078,2.10493173
57266,41,,1094,c. de Jovellanos,41.54897919,2.10477762
57269,47,,1094,c. de Jovellanos,41.54910411,2.10471029
57268,45,,1094,c. de Jovellanos,41.54906201,2.10473303
71660,73,,1094,c. de Jovellanos,41.54969162,2.10438327
11140,42,,949,pgon. dels Merinals,41.5449983,2.08854201
395939,4B,,1094,c. de Jovellanos,41.54757045,2.1057144
11149,72,,949,pgon. dels Merinals,41.54404357,2.08810118
11148,75,,949,pgon. dels Merinals,41.54380113,2.08784994
70116,59,,780,pg. de la Plaça Major,41.54808044,2.10846109
24161,31,,780,pg. de la Plaça Major,41.54756326,2.10841575
24159,33,,780,pg. de la Plaça Major,41.54760568,2.10842074
58445,17,,724,Rambla,41.54562584,2.10961972
61287,98,,1080,c. de Lacy,41.54458048,2.11344491
59108,12,,779,c. de les Planes,41.54385174,2.10905812
59127,24,,779,c. de les Planes,41.54378851,2.10871383
59112,30,,779,c. de les Planes,41.54375765,2.10854391
200635,8,,18029,c. de Banyoles,41.54952199,2.12890279
17195,8,,1170,ptge. de Guanta,41.56582484,2.09873084
396335,8B,,1170,ptge. de Guanta,41.56581273,2.09875121
112840,322,,1295,rda. d' Europa,41.55714344,2.08261872
10961,123,,949,pgon. dels Merinals,41.54162209,2.08938577
11053,120,,949,pgon. dels Merinals,41.5417223,2.08958561
11087,116,,949,pgon. dels Merinals,41.54195874,2.08967166
20144,157,,1207,c. de Garcilaso,41.54878614,2.1001625
64508,109,,949,pgon. dels Merinals,41.54237774,2.08883497
11077,112,,949,pgon. dels Merinals,41.54217664,2.08840309
10805,256,,1429,rda. de Collsalarca,41.56991973,2.08526803
46871,29,,1184,c. de Gràcia,41.54735726,2.10738528
11075,103,,949,pgon. dels Merinals,41.54261871,2.08808867
11076,104,,949,pgon. dels Merinals,41.54247535,2.08821374
11080,107,,949,pgon. dels Merinals,41.5423348,2.08906336
9036,89,,949,pgon. dels Merinals,41.54317474,2.08761253
64375,79,,949,pgon. dels Merinals,41.54374472,2.08727456
24242,33,,1184,c. de Gràcia,41.54742843,2.10732385
396583,138A,,1207,c. de Garcilaso,41.54898415,2.10051358
13765,197,,1429,rda. de Collsalarca,41.56924192,2.09056732
66696,36,,1461,c. de Casp,41.53053137,2.118969
15766,1,,1236,c. de Francesc Gimeno,41.54299685,2.09479679
13762,201,,1429,rda. de Collsalarca,41.56929056,2.09046948
13763,199,,1429,rda. de Collsalarca,41.56926425,2.09052249
14426,67,,1172,c. de Guadarrama,41.56956947,2.09096982
14427,65,,1172,c. de Guadarrama,41.5695513,2.09102243
14428,63,,1172,c. de Guadarrama,41.56953213,2.0910775
390115,59B,,1172,c. de Guadarrama,41.56949104,2.09119555
14431,57,,1172,c. de Guadarrama,41.5694745,2.09124412
14425,69,,1172,c. de Guadarrama,41.56958915,2.09091266
75055,159,,1429,rda. de Collsalarca,41.56855106,2.0919977
75060,169,,1429,rda. de Collsalarca,41.56865926,2.09176565
17321,44,,1396,c. de Corones,41.56872697,2.09338919
56363,145,,1429,rda. de Collsalarca,41.56833272,2.09245902
13436,131,,1429,rda. de Collsalarca,41.56808409,2.09294471
38303,101,,1429,rda. de Collsalarca,41.56720644,2.09457787
79354,28,,1434,c. dels Clavells,41.56736649,2.09599155
319217,4,,22981,parc del Nord,41.56657304,2.09784912
17038,59,,1429,rda. de Collsalarca,41.5658926,2.0969913
38291,45,,1429,rda. de Collsalarca,41.56539554,2.09791799
52878,47,,1033,c. de Lope de Vega,41.53016004,2.11822386
113396,524,,1295,rda. d' Europa,41.56250532,2.08212271
19235,31,,857,c. d' Osca,41.54321461,2.10485781
71763,1,,1144,pl. de Jaume Girabau,41.56035158,2.10075345
27013,91,,716,c. de Regàs,41.53956938,2.11654225
43464,5,,1144,pl. de Jaume Girabau,41.56043497,2.10102359
43054,15,,1109,pl. de Jonqueres,41.56006789,2.10084452
43474,198,,1458,c. de Castellar del Vallès,41.56007015,2.10055091
43476,202,,1458,c. de Castellar del Vallès,41.5601381,2.10053905
43471,192,,1458,c. de Castellar del Vallès,41.55997492,2.10056893
26921,37,,716,c. de Regàs,41.53902962,2.11456958
26922,35,,716,c. de Regàs,41.53901563,2.11451837
26927,29,,1240,c. de Fra Luis de León,41.53897317,2.11395499
26928,25,,1240,c. de Fra Luis de León,41.5390741,2.11390333
26931,19,,1240,c. de Fra Luis de León,41.53920709,2.11381665
26930,21,,1240,c. de Fra Luis de León,41.53917278,2.11383333
27012,93,,716,c. de Regàs,41.53958223,2.11658973
27020,77,,716,c. de Regàs,41.53947353,2.11618844
28991,41,,580,c. dels Sentmenat,41.54227211,2.11872114
29028,467,,1388,c. de Covadonga,41.54274178,2.11916059
28799,52,,921,c. dels Montcada,41.54493667,2.11975381
27558,249,,1388,c. de Covadonga,41.54859467,2.11631527
27555,255,,1388,c. de Covadonga,41.54849166,2.11636515
27556,253,,1388,c. de Covadonga,41.54852543,2.11634887
63320,7,,924,c. de Monestero,41.54848117,2.12633439
63322,3,,924,c. de Monestero,41.54846898,2.12618798
63314,19,,924,c. de Monestero,41.54851719,2.12675981
63315,17,,924,c. de Monestero,41.5485109,2.12668505
63312,23,,924,c. de Monestero,41.54852796,2.12689811
63395,39,,924,c. de Monestero,41.54858455,2.12756231
63389,47,,924,c. de Monestero,41.5486085,2.12784265
63404,67,,588,c. de Sau,41.54851425,2.12814273
63406,65,,588,c. de Sau,41.54840283,2.12815984
63408,63,,588,c. de Sau,41.54828892,2.12817727
63410,61,,588,c. de Sau,41.54817575,2.1281941
67273,53,,588,c. de Sau,41.54772356,2.12826285
63412,59,,588,c. de Sau,41.54805909,2.12821152
63414,57,,588,c. de Sau,41.54794811,2.12822821
63373,63,,610,c. de Sant Maurici,41.54882559,2.12761351
63374,61,,610,c. de Sant Maurici,41.54881989,2.1275449
63375,59,,610,c. de Sant Maurici,41.5488145,2.12747777
63370,69,,610,c. de Sant Maurici,41.54884072,2.12779256
63372,65,,610,c. de Sant Maurici,41.54883142,2.12768464
63369,71,,610,c. de Sant Maurici,41.54884793,2.1278792
63351,17,,610,c. de Sant Maurici,41.54870353,2.12618244
63345,29,,610,c. de Sant Maurici,41.54873024,2.1264983
63346,27,,610,c. de Sant Maurici,41.54872632,2.12645141
63347,25,,610,c. de Sant Maurici,41.54872042,2.12638209
63352,15,,610,c. de Sant Maurici,41.54869903,2.1261346
63353,13,,610,c. de Sant Maurici,41.5486948,2.12609013
63354,11,,610,c. de Sant Maurici,41.54869058,2.12603951
63348,23,,610,c. de Sant Maurici,41.54871551,2.12632703
63349,21,,610,c. de Sant Maurici,41.54871111,2.12627617
63350,19,,610,c. de Sant Maurici,41.54870717,2.1262271
63340,39,,610,c. de Sant Maurici,41.54876239,2.12687455
67269,43,,610,c. de Sant Maurici,41.54877508,2.12701773
67270,41,,610,c. de Sant Maurici,41.54876909,2.12694674
63342,35,,610,c. de Sant Maurici,41.54875006,2.12672774
63343,33,,610,c. de Sant Maurici,41.54874414,2.12665585
63339,47,,610,c. de Sant Maurici,41.54878708,2.12716045
63335,28,,665,c. de Saboredo,41.5489918,2.12685524
63166,25,,1474,c. de Carançà,41.54984214,2.1265983
68573,18B,,1474,c. de Carançà,41.54962814,2.1267546
63661,128,,588,c. de Sau,41.55169207,2.1262737
68538,28B,,584,c. del Segre,41.55037301,2.122026
67162,71,,883,c. de la Noguera Pallaresa,41.54978328,2.12290977
62902,81,,883,c. de la Noguera Pallaresa,41.55001458,2.12264966
62916,30,,882,c. de la Noguera Ribagorçana,41.54995951,2.12231058
62924,29,,882,c. de la Noguera Ribagorçana,41.54985795,2.12225685
62926,25,,882,c. de la Noguera Ribagorçana,41.54976717,2.1223585
68589,11B,,1055,c. del Llobregat,41.54859,2.12520558
63569,23,,1055,c. del Llobregat,41.54879161,2.12496995
19501,4,,496,pl. del Vallès,41.54593894,2.10247437
65848,35,,1069,c. de Lepant,41.53741325,2.11218231
26440,56,,593,c. de Sardà,41.53729975,2.11204406
26441,64,,593,c. de Sardà,41.5371885,2.1120983
21992,12,,783,c. dels Pirineus,41.56034467,2.10186218
21990,216,,756,ctra. de Prats de Lluçanès,41.56024626,2.10149864
21630,200,,756,ctra. de Prats de Lluçanès,41.55966911,2.10160268
21627,9,,1108,c. de Josep Aparici,41.55963092,2.10213504
22009,252,,707,c. de Ribot i Serra,41.56014285,2.10244088
73716,260,,707,c. de Ribot i Serra,41.56034772,2.10213902
57031,40,,1160,c. de l' Horta Novella,41.54468335,2.10558029
59131,36,,1160,c. de l' Horta Novella,41.5447378,2.10565422
397203,518V,,1295,rda. d' Europa,41.5618064,2.0821081
9866,2,,680,pl. de Ròmul,41.55236312,2.08324045
19141,46,,857,c. d' Osca,41.54313787,2.10479564
19136,36,,857,c. d' Osca,41.5432861,2.10469855
19133,30,,857,c. d' Osca,41.54338677,2.10463255
19134,32,,857,c. d' Osca,41.54335849,2.10465126
19130,24,,857,c. d' Osca,41.54347644,2.10457336
19131,26,,857,c. d' Osca,41.5434462,2.10459324
19142,48,,857,c. d' Osca,41.54310215,2.10481931
57091,140,,1160,c. de l' Horta Novella,41.54337732,2.10380943
39486,14,,712,c. de Renall,41.53431976,2.10323762
57082,116,,1160,c. de l' Horta Novella,41.54371415,2.10426776
58706,28,,724,Rambla,41.54538852,2.10947132
17450,527,,756,ctra. de Prats de Lluçanès,41.57125281,2.09556326
17424,86,,1014,c. de les Magnòlies,41.56981704,2.09550746
14396,27,,1172,c. de Guadarrama,41.5690982,2.09237902
14389,41,,1172,c. de Guadarrama,41.56922175,2.09202409
14388,43,,1172,c. de Guadarrama,41.5692373,2.09197655
14395,29,,1172,c. de Guadarrama,41.56911909,2.09232016
14394,31,,1172,c. de Guadarrama,41.5691383,2.09226392
14393,33,,1172,c. de Guadarrama,41.56915875,2.09221878
13536,60,,1065,c. de la Llanera,41.56859139,2.09050778
12945,30,,1065,c. de la Llanera,41.56798005,2.08955666
136722,12,,9322,c. de Can Maurí,41.54129169,2.13754472
136724,16,,9322,c. de Can Maurí,41.54117567,2.13763639
17724,263,,599,c. de Sant Sebastià,41.53394207,2.10571713
113365,100,,1296,av. d' Estrasburg,41.56151167,2.08282095
58345,160,,571,c. del Sol,41.54166754,2.11002309
28707,146,,580,c. dels Sentmenat,41.54292982,2.12156377
27389,198,,1388,c. de Covadonga,41.54976795,2.11561869
27390,200,,1388,c. de Covadonga,41.54973258,2.11563576
27780,19,,635,c. de Santa Teresa,41.5517108,2.11564477
75840,179,,1510,ctra. de Caldes,41.55387543,2.11511097
75712,159,,1510,ctra. de Caldes,41.55353901,2.11554652
58697,140,,571,c. del Sol,41.54200592,2.10992031
58343,156,,571,c. del Sol,41.54173216,2.11000366
58341,152,,571,c. del Sol,41.54180027,2.10998275
58340,150,,571,c. del Sol,41.54183478,2.10997245
135257,27,,9288,Enllaç Autopista C-58 (abans A-18) amb la N-150,41.55028096,2.06745713
78467,135,,1640,c. d' Antoni Forrellad,41.56191386,2.09836197
16818,133,,1640,c. d' Antoni Forrellad,41.56189255,2.09858038
57810,49,,683,c. de Roma,41.56353009,2.10314124
22491,23,,1020,c. del Maestrat,41.56236836,2.10244664
22490,25,,1020,c. del Maestrat,41.56242853,2.10243996
147905,2B,,1626,c. d' Archidona,41.56426459,2.10495582
50472,38,,1169,c. de Güell i Ferrer,41.53873211,2.11505771
71264,5,,1261,pg. de Fleming,41.55863491,2.09566426
11342,25,,938,c. de Miquel Àngel,41.54846465,2.08766837
27917,197,,1510,ctra. de Caldes,41.55513485,2.11574134
11341,27,,938,c. de Miquel Àngel,41.54847477,2.08775269
397616,85A,,1429,rda. de Collsalarca,41.56660932,2.0956771
397789,211,,53,Riu Ripoll,41.55896287,2.108707
139652,4,,9347,camí de Servei dels Horts de Can Puiggener,41.55919416,2.10781388
397837,2B,,9347,camí de Servei dels Horts de Can Puiggener,41.55914421,2.10781326
139647,10,,9347,camí de Servei dels Horts de Can Puiggener,41.55962702,2.1078291
139657,3,,9347,camí de Servei dels Horts de Can Puiggener,41.55915549,2.10772326
139659,7,,9347,camí de Servei dels Horts de Can Puiggener,41.55929434,2.10772688
139670,29,,9347,camí de Servei dels Horts de Can Puiggener,41.56093319,2.1078346
398022,15A,,455,pl. de Xavier Sanahuja,41.5613691,2.12944073
65683,238,,1588,av. de Barberà,41.53463707,2.11468031
49698,131,,1240,c. de Fra Luis de León,41.53537456,2.11581569
16215,2,,1604,via Aurèlia,41.55518971,2.0952486
398281,10A,,839,av. dels Paraires,41.55519095,2.09607886
398282,10B,,839,av. dels Paraires,41.55518687,2.09602821
398010,423V,,1587,ctra. de Barcelona,41.53384016,2.1124996
64885,34,,1524,c. de Brutau,41.53637947,2.11144105
109409,1A,,975,c. de Martí l'Humà,41.53377412,2.11488803
49699,133,,1240,c. de Fra Luis de León,41.53532973,2.11581374
106669,7A,,975,c. de Martí l'Humà,41.5336488,2.11425389
67517,457,,1587,ctra. de Barcelona,41.53337883,2.11340771
67529,15,,975,c. de Martí l'Humà,41.53352104,2.11378507
397394,100I,,1071,c. de Leonardo da Vinci,41.52205936,2.11285669
18547,60,,1266,c. de Fiveller,41.53923183,2.10458652
18553,74,,1266,c. de Fiveller,41.53914254,2.10425981
18559,85,,469,c. de Viladomat,41.53944149,2.10295918
18570,63,,469,c. de Viladomat,41.53959175,2.10349345
18564,75,,469,c. de Viladomat,41.539515,2.10322034
18566,71,,469,c. de Viladomat,41.53954299,2.10331922
18562,79,,469,c. de Viladomat,41.53948487,2.10311397
70206,43,,781,c. de Pizarro,41.52904509,2.1162247
69402,8B,,660,c. de Sallarès i Marra,41.53794699,2.11413413
58130,16,,1258,ptge. de Foix,41.52836952,2.10984186
18646,119,,822,c. de Pau Claris,41.54077147,2.1014116
11435,287,,542,ctra. de Terrassa,41.54662424,2.0911782
44548,13,,1185,c. de Goya,41.52889476,2.10798966
65993,26,,1513,c. de Calassanç Duran,41.53959818,2.11399126
73853,7,,1185,c. de Goya,41.5290048,2.10802981
64823,283,,1303,pg. d' Espronceda,41.5262307,2.10764347
79260,158,,1080,c. de Lacy,41.54489476,2.11518254
9880,16,,680,pl. de Ròmul,41.5520158,2.08370609
10043,9,,1091,c. de Juli Garreta,41.55181398,2.08160721
20471,65,,1397,c. de Corominas,41.54841189,2.10374435
365913,118A,,375,camí Vell de Polinyà,41.55114696,2.13994934
52359,209,,1510,ctra. de Caldes,41.55547663,2.11602028
63084,46,,504,c. de la Valira Baixa,41.55054847,2.1235706
77030,2,,1451,c. de Cebrià Cabané,41.5527425,2.08229666
9540,23,,1443,c. de Chopin,41.55034275,2.08245922
8745,430,,542,ctra. de Terrassa,41.54959412,2.08125854
9568,49,,1443,c. de Chopin,41.5498777,2.0832143
9569,47,,1443,c. de Chopin,41.54988695,2.08315304
67590,18B,,516,c. de Turina,41.54948966,2.08379373
9373,32,,516,c. de Turina,41.54988714,2.08370736
9438,43,,1093,c. de Juan Valera,41.54962253,2.08625083
9417,45,,1093,c. de Juan Valera,41.54966902,2.08624063
9257,46,,1115,c. de Joaquim Sorolla,41.54974569,2.08722968
30261,58,,1115,c. de Joaquim Sorolla,41.5500056,2.08717178
11359,91,,1635,c. d' Antonio Vico,41.54960095,2.08767966
365920,108V,,375,camí Vell de Polinyà,41.55085942,2.13841707
22189,348,,756,ctra. de Prats de Lluçanès,41.56203535,2.10120213
65431,1,,1343,c. dels Drapaires,41.52989029,2.11353091
210439,114C,,375,camí Vell de Polinyà,41.55030596,2.13930391
75844,187,,1510,ctra. de Caldes,41.55462,2.11532179
58292,192,,571,c. del Sol,41.54101688,2.11028378
393101,58A,,966,via de Massagué,41.55135473,2.10693892
65166,5,,1471,c. dels Carders,41.52831953,2.11375264
65169,11,,1471,c. dels Carders,41.52817848,2.11323634
60959,25,,1303,pg. d' Espronceda,41.52863733,2.11629269
58221,3,,687,pl. de Rogelio Soto,41.52841192,2.11170754
44372,26,,1505,c. de Campoamor,41.52891244,2.10892638
42413,43,,1234,c. de Francesc Layret,41.55926458,2.09962298
21151,49,,1234,c. de Francesc Layret,41.55954702,2.09976144
136690,4,,9309,c. de Can Pobla,41.5419755,2.13581946
399292,6B,,9309,c. de Can Pobla,41.54206405,2.13601781
16332,122,,1013,c. Major,41.55673356,2.09860261
19846,127,,1512,c. de Calderón,41.54668257,2.10143797
19847,125,,1512,c. de Calderón,41.54669552,2.1014829
19852,115,,1512,c. de Calderón,41.54676431,2.10172635
19855,109,,1512,c. de Calderón,41.54680537,2.10186682
19843,133,,1512,c. de Calderón,41.5466379,2.10128253
19844,131,,1512,c. de Calderón,41.54665346,2.10133622
399221,36B,,1080,c. de Lacy,41.54428016,2.11180161
399296,2B,,9309,c. de Can Pobla,41.54189944,2.13564826
399224,99B,,1316,c. de l' Escola Pia,41.54867514,2.10261405
23588,24,,1339,c. de Duran i Sors,41.53997622,2.11011445
21422,79,,851,c. de Paco Mutlló,41.55646119,2.10432837
21421,81,,851,c. de Paco Mutlló,41.55649118,2.10428465
21420,83,,851,c. de Paco Mutlló,41.55652068,2.10424167
21418,87,,851,c. de Paco Mutlló,41.55657174,2.10416786
21417,89,,851,c. de Paco Mutlló,41.55659918,2.10412755
21198,62,,851,c. de Paco Mutlló,41.55640825,2.10465014
21200,64,,851,c. de Paco Mutlló,41.55642799,2.10459951
68428,63B,,1311,c. de l' Església Romànica,41.52815307,2.12221535
399359,99B,,1146,c. de Jacquard,41.54237019,2.09569349
35012,65,,690,c. de Rocafort,41.53660424,2.09826317
399936,65B,,1316,c. de l' Escola Pia,41.54937656,2.10507
18055,127,,941,c. de Milà i Fontanals,41.53526632,2.1011884
18059,119,,941,c. de Milà i Fontanals,41.53532064,2.10138973
18072,298,,797,c. de Permanyer,41.53507084,2.10217652
18068,290,,797,c. de Permanyer,41.5352058,2.10211084
68963,8T,,557,c. de Tamarit,41.5304768,2.10248514
17640,10,,557,c. de Tamarit,41.53041793,2.10227289
17639,6,,557,c. de Tamarit,41.53049841,2.10256374
35156,68,,1547,c. de Boccaccio,41.53457444,2.097772
14897,214,,628,c. de Sant Ferran,41.53552892,2.09794129
35257,8,,1425,c. de Colòmbia,41.54045077,2.09383814
52892,42,,1033,c. de Lope de Vega,41.53051473,2.11789218
57850,17,,838,c. de Pardo Bazán,41.52556267,2.11165743
18070,294,,797,c. de Permanyer,41.53513763,2.10214411
18883,129,,1266,c. de Fiveller,41.5381363,2.10098923
18884,123,,1266,c. de Fiveller,41.5381752,2.10113234
18887,117,,1266,c. de Fiveller,41.53821472,2.10127809
18892,107,,1266,c. de Fiveller,41.53827972,2.10151674
216084,9,,39015,c. d' Hongria,41.54707205,2.08269684
58270,184,,571,c. del Sol,41.54116903,2.11021262
58269,180,,571,c. del Sol,41.54122796,2.11018512
136731,21,,9313,c. de Can Mimó,41.54060195,2.13739442
399499,13B,,9313,c. de Can Mimó,41.54039979,2.13694184
27195,130,,1513,c. de Calassanç Duran,41.54054801,2.11747505
15380,92,,785,c. del Pintor Borrassà,41.54130503,2.0949027
42840,32,,503,c. de Vallcorba,41.55748567,2.10369256
47894,67,,707,c. de Ribot i Serra,41.55652545,2.10753202
25076,82,,707,c. de Ribot i Serra,41.55681322,2.10733472
388599,1,,768,pl. de Pompeu Fabra,41.56212359,2.10002998
47863,129,,913,c. del Montseny,41.55688558,2.10744814
27649,18,,1510,ctra. de Caldes,41.55349322,2.11327912
35013,69,,690,c. de Rocafort,41.53634179,2.09838986
60285,3,,568,c. de la Soledat,41.5511136,2.11034928
400693,23B,,497,ptge. del Vallès,41.54663699,2.09984041
69141,56B,,1020,c. del Maestrat,41.56343239,2.1025398
58603,78,,1275,c. de Ferran Casablancas,41.54265879,2.1065919
111422,13B,,1020,c. del Maestrat,41.56209189,2.10226257
22617,2,,1020,c. del Maestrat,41.5618734,2.10265026
68080,33B,,1020,c. del Maestrat,41.56264215,2.10241608
14483,101,,512,c. dels Urals,41.57393586,2.08903313
14591,78,,512,c. dels Urals,41.57426496,2.08876192
399576,1B,,549,c. de Tenerife,41.54657191,2.09075865
400008,35B,,919,c. de Monteixo,41.56737825,2.08561612
400061,20B,,1190,c. del Gironès,41.56500265,2.09199781
400128,56A,,1020,c. del Maestrat,41.56334177,2.10250373
77838,6B,,995,ptge. de Marco Polo,41.56519587,2.10501801
77831,6A,,995,ptge. de Marco Polo,41.56515504,2.10501826
77842,6C,,995,ptge. de Marco Polo,41.56523539,2.10501777
77777,10B,,995,ptge. de Marco Polo,41.56549194,2.10501575
69159,10A,,995,ptge. de Marco Polo,41.56545833,2.10501606
79192,18B,,995,ptge. de Marco Polo,41.56593281,2.10501208
79193,18C,,995,ptge. de Marco Polo,41.56596728,2.1050116
79204,16B,,995,ptge. de Marco Polo,41.56578361,2.10501414
79149,20B,,995,ptge. de Marco Polo,41.56609205,2.10501031
79142,22C,,995,ptge. de Marco Polo,41.56626992,2.10500841
274855,323I,,53,Riu Ripoll,41.57076564,2.09946339
15366,86,,785,c. del Pintor Borrassà,41.54146289,2.09547856
26088,34,,1638,c. d' Antoni Maura,41.52522222,2.11717684
26087,32,,1638,c. d' Antoni Maura,41.52526511,2.11715109
51202,181,,522,c. de les Tres Creus,41.54646994,2.11682081
106037,2,,1350,pl. de Dolors Miralles,41.54599356,2.11437106
36379,4,,834,c. del Pare Rodamilans,41.54390713,2.09887941
36391,34,,834,c. del Pare Rodamilans,41.54395815,2.09868815
15462,32,,834,c. del Pare Rodamilans,41.54394017,2.09875557
10645,3,,525,c. de Toses,41.57029304,2.08331314
37007,13,,634,c. de Sant Baldomer,41.5466938,2.09864361
37424,33,,1703,c. de l' Abat Escarré,41.55757821,2.09604267
400591,8A,,1697,c. d' Àger,41.57071384,2.08178655
137867,6B,,1697,c. d' Àger,41.57075433,2.08183418
78256,137,,1080,c. de Lacy,41.54501339,2.11530882
78257,139,,1080,c. de Lacy,41.54504519,2.11548044
78258,141,,1080,c. de Lacy,41.54507835,2.11565934
400605,7B,,1012,c. de la Maladeta,41.56783636,2.08860129
215849,17,,39026,c. de Polònia,41.54961289,2.07781762
400161,60I,,1014,c. de les Magnòlies,41.56881378,2.09692361
42741,134,,756,ctra. de Prats de Lluçanès,41.55796886,2.10191631
400658,49B,,635,c. de Santa Teresa,41.5523984,2.11532353
400694,25B,,497,ptge. del Vallès,41.54661023,2.09974766
400882,46B,,1540,c. de Bonavista,41.54788722,2.11762134
30104,118,,1009,c. de Malta,41.5457519,2.08477863
16319,96,,1013,c. Major,41.55639095,2.09921183
56473,87,,459,c. dels Vosges,41.57441126,2.09057122
16331,120,,1013,c. Major,41.55669795,2.09864454
16330,118,,1013,c. Major,41.55665949,2.0986899
80011,134,,1009,c. de Malta,41.54523016,2.08523353
80015,142,,1009,c. de Malta,41.54498811,2.08544405
80016,144,,1009,c. de Malta,41.54494902,2.08547804
399220,35A,,498,c. del Vallès,41.54684393,2.10087448
56468,103,,459,c. dels Vosges,41.57465492,2.09019762
401026,29A,,1505,c. de Campoamor,41.52900197,2.10905619
401027,29B,,1505,c. de Campoamor,41.52897184,2.10907115
56823,89,,1013,c. Major,41.55619905,2.09941293
71762,48,,1638,c. d' Antoni Maura,41.52475055,2.11746007
26115,63,,1018,c. de Magí Colet,41.52486883,2.11732636
21074,39,,792,c. de Pi i Margall,41.55529437,2.10070133
401061,60A,,701,c. de Riera Villaret,41.55612722,2.09847377
56831,78,,701,c. de Riera Villaret,41.55643879,2.0981958
23257,165,,1069,c. de Lepant,41.53589213,2.10663034
23256,167,,1069,c. de Lepant,41.53587854,2.10657955
23254,171,,1069,c. de Lepant,41.53585463,2.10649182
23247,185,,1069,c. de Lepant,41.5357525,2.10611506
29096,20,,1419,c. del Comte de Reus,41.54722201,2.11764082
109355,146B,,1588,av. de Barberà,41.53616132,2.1139623
26526,93,,1240,c. de Fra Luis de León,41.53649112,2.11513538
401356,93B,,1240,c. de Fra Luis de León,41.53651563,2.11512366
39768,115,,1587,ctra. de Barcelona,41.54100753,2.10557987
39766,111,,1587,ctra. de Barcelona,41.54113992,2.10545202
39771,121,,1587,ctra. de Barcelona,41.54082227,2.10577986
195594,6,,30460,pl. de Maria Vinyes,41.54145307,2.10535602
45990,104,,764,c. de Portugal,41.54099329,2.10596138
27727,93,,1388,c. de Covadonga,41.5523488,2.11451001
402063,79A,,375,camí Vell de Polinyà,41.55381649,2.13708325
62629,20,,1605,illa Àurea,41.53209842,2.12184505
62613,34,,1605,illa Àurea,41.53150651,2.12213447
62614,33,,1605,illa Àurea,41.53153994,2.12211813
25368,46,,1463,c. de Cartago,41.56197514,2.10589987
22126,42,,663,c. de Sagunt,41.56177583,2.1053105
402259,27A,,1463,c. de Cartago,41.56185347,2.10546905
402260,27B,,1463,c. de Cartago,41.56187404,2.10550256
401249,21B,,841,c. del Papa Pius XI,41.55204926,2.1047055
36751,70,,1114,c. de Joaquín Costa,41.5471224,2.09643776
402507,169A,,1224,c. de Frederic Soler,41.53642989,2.10056609
65621,90,,593,c. de Sardà,41.53627682,2.11254081
10615,65,,922,c. del Mont Blanc,41.56974611,2.08657234
50651,31,,569,c. de Sol i Padrís,41.54110462,2.11703779
402710,132V,,95140,,41.53907656,2.09498432
73575,293,,707,c. de Ribot i Serra,41.56021563,2.10202815
135771,26,,9299,Riu Sec,41.51911093,2.09998697
31549,54,,1693,c. d' Agustí Bartra,41.57488413,2.08157868
18277,116,,715,c. de la Reina Elionor,41.53807807,2.10335853
18307,47,,1266,c. de Fiveller,41.5388943,2.10378329
57558,84,,841,c. del Papa Pius XI,41.55300318,2.10351803
403064,4I,,408,camí de la Fàbrica Castelló,41.55629871,2.11510605
372146,55A,,1234,c. de Francesc Layret,41.55953562,2.10001121
403076,55B,,1234,c. de Francesc Layret,41.55953887,2.10004314
15007,67,,693,c. de Riu-sec,41.54139537,2.09934571
402729,131V,,95140,,41.53936246,2.0952644
58128,88,,1285,c. de Feijoo,41.52678972,2.11102562
65157,10,,550,c. dels Teixidors,41.52780714,2.11349113
402744,20B,,1703,c. de l' Abat Escarré,41.55709743,2.09632074
400603,7B,,619,c. de Sant Jaume,41.54621045,2.10517584
399541,2,,768,pl. de Pompeu Fabra,41.56193588,2.09989931
399543,4,,768,pl. de Pompeu Fabra,41.56198015,2.09946611
399544,6,,768,pl. de Pompeu Fabra,41.56204137,2.09886449
394313,624V,,542,ctra. de Terrassa,41.55354059,2.06539367
257996,33B,,1389,c. de Costabona,41.57117983,2.07856189
8549,3,,1092,c. de Jules Verne,41.56270301,2.06818956
8553,23,,1092,c. de Jules Verne,41.56103756,2.06939282
8574,32,,1332,c. d' Einstein,41.55739626,2.07357429
8578,35,,1210,c. de Gandhi,41.55761617,2.07436583
8587,40,,1210,c. de Gandhi,41.55771992,2.07439066
8609,52,,1648,c. d' Anne Frank,41.55893029,2.07546244
8611,60,,1648,c. d' Anne Frank,41.55900809,2.07484585
8612,56,,1648,c. d' Anne Frank,41.55895158,2.07524593
8615,80,,1024,c. de Luther King,41.55941917,2.07540673
8617,51,,1558,c. de Bertrand Russell,41.55635372,2.0735329
8622,31,,1558,c. de Bertrand Russell,41.55647914,2.07470607
8626,6,,992,c. de les Mares de la Plaça de Maig,41.55912782,2.07409475
8639,5,,992,c. de les Mares de la Plaça de Maig,41.55886936,2.073985
8647,71,,1092,c. de Jules Verne,41.55586426,2.07045443
8655,23,,1000,c. de Mark Twain,41.55791841,2.07054767
8659,7,,1000,c. de Mark Twain,41.55646442,2.07136443
8718,48,,869,c. d' Olof Palme,41.55978432,2.07145353
8739,37,,457,c. de Wagner,41.549993,2.0815782
8741,11,,1123,c. de Johann Sebastian Bach,41.54973761,2.0815193
8744,1,,1123,c. de Johann Sebastian Bach,41.54959479,2.08141774
8747,6,,1688,c. d' Albéniz,41.54984855,2.08088468
8756,6,,1310,c. d' Eslava,41.55033861,2.08052614
8765,450,,542,ctra. de Terrassa,41.55000266,2.08014397
8772,5,,1310,c. d' Eslava,41.55043842,2.08061589
8554,38,,1558,c. de Bertrand Russell,41.55643721,2.07348511
8559,13,,1332,c. d' Einstein,41.55698031,2.07406566
8566,4,,1332,c. d' Einstein,41.55666391,2.07477897
8568,8,,1332,c. d' Einstein,41.55672808,2.07467321
8569,12,,1332,c. d' Einstein,41.55687474,2.07443154
8575,73,,825,av. de la Pau,41.55752008,2.07363769
8601,49,,825,av. de la Pau,41.55879383,2.07470294
8606,11,,532,c. de Tolstoi,41.5584259,2.07529398
8608,32,,1111,c. de John Lennon,41.55819767,2.07494554
8619,43,,1558,c. de Bertrand Russell,41.55640279,2.07399227
8628,12,,992,c. de les Mares de la Plaça de Maig,41.55946626,2.07399195
8636,3,,1023,c. de Luthuli,41.55938834,2.0723511
8642,56,,825,av. de la Pau,41.5575112,2.07319971
8651,49,,1092,c. de Jules Verne,41.5577754,2.06956469
8656,19,,1000,c. de Mark Twain,41.55747804,2.07068812
8664,29,,825,av. de la Pau,41.55970808,2.07488723
8665,23,,825,av. de la Pau,41.56005041,2.07489029
8667,4,,1030,c. de Louis Braille,41.56197142,2.07470474
8672,36,,992,c. de les Mares de la Plaça de Maig,41.56096512,2.07296618
8673,42,,992,c. de les Mares de la Plaça de Maig,41.56118754,2.07267032
8681,90,,992,c. de les Mares de la Plaça de Maig,41.56266005,2.06975566
8684,24,,825,av. de la Pau,41.56039541,2.07453553
8689,27,,1023,c. de Luthuli,41.56069178,2.07129139
8699,44,,1023,c. de Luthuli,41.5613509,2.07044991
8700,40,,1023,c. de Luthuli,41.56122924,2.07063968
8709,79,,992,c. de les Mares de la Plaça de Maig,41.56240948,2.07005184
8710,85,,992,c. de les Mares de la Plaça de Maig,41.56254629,2.06968748
8726,24,,1023,c. de Luthuli,41.56061091,2.07160422
8740,13,,1123,c. de Johann Sebastian Bach,41.54978032,2.08154966
8736,43,,457,c. de Wagner,41.55007393,2.08137806
8762,442,,542,ctra. de Terrassa,41.54982288,2.08063931
8768,11,,1688,c. d' Albéniz,41.55060785,2.08129333
8773,7,,1310,c. d' Eslava,41.55049448,2.08040855
8776,44,,457,c. de Wagner,41.55016499,2.08147495
8783,26,,1688,c. d' Albéniz,41.55041759,2.08134689
8788,11,,1548,c. de la Bòbila,41.54888577,2.08152503
8792,19,,1548,c. de la Bòbila,41.54879719,2.08131956
8801,39,,1548,c. de la Bòbila,41.54847305,2.08056359
8538,45,,1092,c. de Jules Verne,41.55804086,2.06929396
8552,19,,1092,c. de Jules Verne,41.56145359,2.06921228
8555,81,,825,av. de la Pau,41.55717728,2.07302591
8556,25,,1332,c. d' Einstein,41.55730645,2.07352696
8570,16,,1332,c. d' Einstein,41.55696609,2.07428107
8581,11,,1210,c. de Gandhi,41.5569594,2.07543193
8585,32,,1210,c. de Gandhi,41.55755012,2.0746663
8631,64,,825,av. de la Pau,41.55727893,2.07268953
8635,30,,869,c. d' Olof Palme,41.55905587,2.07189942
8662,66,,1092,c. de Jules Verne,41.55634648,2.06975718
8702,61,,992,c. de les Mares de la Plaça de Maig,41.5617708,2.07135638
8704,71,,992,c. de les Mares de la Plaça de Maig,41.56216386,2.07057292
8706,77,,992,c. de les Mares de la Plaça de Maig,41.56235934,2.07017232
8723,10,,1023,c. de Luthuli,41.55973892,2.07249233
8731,59,,992,c. de les Mares de la Plaça de Maig,41.56158998,2.07172076
8743,5,,1123,c. de Johann Sebastian Bach,41.54965785,2.08146262
8764,446,,542,ctra. de Terrassa,41.54981896,2.08042899
8770,1,,1310,c. d' Eslava,41.55036028,2.08090504
8779,20,,1688,c. d' Albéniz,41.55027417,2.08122892
8780,50,,457,c. de Wagner,41.55025909,2.08123635
8791,17,,1548,c. de la Bòbila,41.54882388,2.08138158
8813,22,,1548,c. de la Bòbila,41.5487717,2.08095041
8814,24,,1548,c. de la Bòbila,41.5487509,2.08090182
8820,36,,1548,c. de la Bòbila,41.54858498,2.08052193
8816,28,,1548,c. de la Bòbila,41.54869888,2.08078234
8819,34,,1548,c. de la Bòbila,41.54860593,2.0805699
8826,6,,878,c. Nou,41.5499127,2.07763365
8837,2,,892,c. de Narcís Casanoves,41.54955654,2.0774792
8844,36,,878,c. Nou,41.54941559,2.07665123
8853,15,,892,c. de Narcís Casanoves,41.54979846,2.07710379
8864,19,,878,c. Nou,41.54954084,2.07716091
8868,7,,1127,c. de Joan Llongueras,41.55113489,2.08071543
8749,440,,542,ctra. de Terrassa,41.54969122,2.08090202
8877,24,,594,c. de Sarasate,41.55165974,2.08080631
8886,28,,594,c. de Sarasate,41.5519916,2.08096308
8887,30,,594,c. de Sarasate,41.55213469,2.08102979
8892,8,,1210,c. de Gandhi,41.55687415,2.07576371
8902,24,,1111,c. de John Lennon,41.55776856,2.07567882
8921,48,,1648,c. d' Anne Frank,41.55891456,2.07570348
8923,72,,1024,c. de Luther King,41.55941674,2.07579781
8927,56,,1024,c. de Luther King,41.55919851,2.07657771
8930,44,,1024,c. de Luther King,41.55873592,2.07694527
8936,20,,1024,c. de Luther King,41.55775642,2.07731856
8937,16,,1024,c. de Luther King,41.55753521,2.07729869
8939,8,,1024,c. de Luther King,41.55719993,2.07721956
8961,2,,1219,c. de Gabriel Ferrater,41.57371797,2.08001677
8978,14,,744,c. de Prudenci Bertrana,41.57424712,2.0799152
8980,18,,744,c. de Prudenci Bertrana,41.57431694,2.08002317
8985,6,,1097,c. de Josep Pla,41.5742588,2.07947467
8994,32,,1097,c. de Josep Pla,41.57475646,2.08027368
9004,26,,744,c. de Prudenci Bertrana,41.57465183,2.08059265
9008,40,,744,c. de Prudenci Bertrana,41.57487339,2.08100703
9024,68,,949,pgon. dels Merinals,41.54426269,2.08703507
9049,50,,549,c. de Tenerife,41.54497,2.08765148
9050,52,,549,c. de Tenerife,41.54495002,2.08760533
9054,3,,1188,c. de la Gomera,41.54473331,2.08634571
9056,147,,1009,c. de Malta,41.54502517,2.08595009
9084,27,,956,c. de Menorca,41.54577367,2.0871843
9093,38,,1011,c. de Mallorca,41.54537667,2.0872907
9094,40,,1011,c. de Mallorca,41.54533723,2.08719972
8824,10,,878,c. Nou,41.54983837,2.07748623
8836,1,,878,c. Nou,41.5499201,2.07792579
8842,40,,878,c. Nou,41.54935248,2.07652695
8880,1,,1091,c. de Juli Garreta,41.55121191,2.08132859
8883,32,,594,c. de Sarasate,41.55226222,2.08109067
8884,7,,1091,c. de Juli Garreta,41.55167365,2.08154277
8888,7,,1210,c. de Gandhi,41.55685161,2.07560696
8891,4,,1210,c. de Gandhi,41.55678761,2.07590421
8893,12,,1210,c. de Gandhi,41.55700823,2.07554601
8896,17,,1111,c. de John Lennon,41.55728387,2.07628573
8906,27,,1648,c. d' Anne Frank,41.55867343,2.07602481
8909,9,,1648,c. d' Anne Frank,41.55800164,2.07640184
8910,4,,1648,c. d' Anne Frank,41.55738953,2.07646369
8935,24,,1024,c. de Luther King,41.5579373,2.07730541
8940,15,,1558,c. de Bertrand Russell,41.55657949,2.07564209
8983,28,,1097,c. de Josep Pla,41.57465089,2.0800822
8984,2,,1097,c. de Josep Pla,41.57419184,2.07937103
9006,34,,744,c. de Prudenci Bertrana,41.57477891,2.08083069
9011,38,,744,c. de Prudenci Bertrana,41.57484158,2.08094765
9014,30,,1693,c. d' Agustí Bartra,41.57440067,2.08063944
9030,71,,949,pgon. dels Merinals,41.54402752,2.08693375
9040,23,,1181,c. de Gran Canària,41.54613571,2.08735662
9048,41,,1011,c. de Mallorca,41.54540776,2.08762811
8823,42,,1548,c. de la Bòbila,41.54851014,2.08035104
8833,7,,878,c. Nou,41.54980182,2.07769301
8860,27,,878,c. Nou,41.54933998,2.07678157
8863,21,,878,c. Nou,41.54948022,2.07705777
8865,17,,878,c. Nou,41.54956766,2.07722997
8875,12,,594,c. de Sarasate,41.55087775,2.08044489
8912,12,,1648,c. d' Anne Frank,41.55766998,2.07654005
8967,12,,1693,c. d' Agustí Bartra,41.57405083,2.08007171
8969,20,,1693,c. d' Agustí Bartra,41.57418923,2.08028665
9035,88,,949,pgon. dels Merinals,41.54332019,2.08748752
8972,6,,1693,c. d' Agustí Bartra,41.5739386,2.0798976
8976,10,,744,c. de Prudenci Bertrana,41.57417427,2.07980254
8982,22,,744,c. de Prudenci Bertrana,41.57439067,2.0801373
8987,14,,1097,c. de Josep Pla,41.57439893,2.07969122
8995,36,,1097,c. de Josep Pla,41.57481806,2.08038843
9000,95,,1620,c. d' Armand Obiols,41.57502737,2.08105784
9002,44,,1097,c. de Josep Pla,41.5749431,2.08062229
9028,66,,949,pgon. dels Merinals,41.54418915,2.08733985
8872,1,,1127,c. de Joan Llongueras,41.55094422,2.08137985
8871,3,,1127,c. de Joan Llongueras,41.55100868,2.0811869
9038,30,,956,c. de Menorca,41.54604491,2.08753152
9046,45,,1011,c. de Mallorca,41.5453548,2.08750656
9047,43,,1011,c. de Mallorca,41.54538183,2.08756871
9098,41,,1076,c. de La Palma,41.54532361,2.08684531
9033,78,,949,pgon. dels Merinals,41.54376615,2.08763477
9034,77,,949,pgon. dels Merinals,41.54393692,2.087625
9134,376,,542,ctra. de Terrassa,41.54815917,2.08673485
9146,3,,1115,c. de Joaquim Sorolla,41.54804961,2.08721175
9148,8,,938,c. de Miquel Àngel,41.5482434,2.08700184
9159,66,,1635,c. d' Antonio Vico,41.54939994,2.08703378
9165,29,,1115,c. de Joaquim Sorolla,41.5490258,2.08723
9175,17,,938,c. de Miquel Àngel,41.54839342,2.0871012
9178,28,,1093,c. de Juan Valera,41.5489848,2.08654393
9180,32,,1093,c. de Juan Valera,41.54910911,2.08651669
9191,57,,1115,c. de Joaquim Sorolla,41.55015071,2.08698472
9196,45,,1115,c. de Joaquim Sorolla,41.54975931,2.08706931
9198,41,,1115,c. de Joaquim Sorolla,41.54964115,2.08709478
9210,42,,1093,c. de Juan Valera,41.54967462,2.08639228
9205,71,,1635,c. d' Antonio Vico,41.54947307,2.08666783
9232,40,,1115,c. de Joaquim Sorolla,41.54937278,2.0873138
9240,20,,1115,c. de Joaquim Sorolla,41.54870031,2.08745999
9243,26,,1115,c. de Joaquim Sorolla,41.54889149,2.0874184
9247,36,,1115,c. de Joaquim Sorolla,41.54914603,2.08736311
9251,19,,1165,c. de Gustavo Adolfo Bécquer,41.55029559,2.08718522
9332,402,,542,ctra. de Terrassa,41.54878657,2.08421611
9335,51,,1209,c. de García Lorca,41.55019394,2.08374833
9338,43,,1209,c. de García Lorca,41.55022106,2.08397649
9340,39,,1209,c. de García Lorca,41.55024227,2.08415505
9348,31,,451,c. de Zorrilla,41.54986173,2.08440811
9372,28,,516,c. de Turina,41.54973642,2.08373997
9095,44,,1011,c. de Mallorca,41.54526969,2.0870419
9107,24,,1181,c. de Gran Canària,41.54615374,2.087161
9113,38,,956,c. de Menorca,41.54583965,2.08707255
9120,29,,1076,c. de La Palma,41.54571814,2.08648367
9137,6,,938,c. de Miquel Àngel,41.5482373,2.08695149
9141,16,,938,c. de Miquel Àngel,41.54827096,2.08732269
9172,11,,1115,c. de Joaquim Sorolla,41.54851907,2.08734225
9177,15,,938,c. de Miquel Àngel,41.5483818,2.08701004
9187,31,,1165,c. de Gustavo Adolfo Bécquer,41.55042252,2.08655159
9195,47,,1115,c. de Joaquim Sorolla,41.54982983,2.08705424
9207,40,,1093,c. de Juan Valera,41.54963181,2.08640535
9212,58,,1093,c. de Juan Valera,41.55019193,2.08628426
9220,12,,1165,c. de Gustavo Adolfo Bécquer,41.55038292,2.0874632
9228,6,,1115,c. de Joaquim Sorolla,41.54808383,2.08739602
9230,10,,1115,c. de Joaquim Sorolla,41.54820105,2.08745702
9235,74,,1635,c. d' Antonio Vico,41.54945839,2.08749555
9236,76,,1635,c. d' Antonio Vico,41.54946359,2.08753592
9238,14,,1115,c. de Joaquim Sorolla,41.54850432,2.08750258
9264,44,,1635,c. d' Antonio Vico,41.54927823,2.08605671
9303,10,,1635,c. d' Antonio Vico,41.54907013,2.08439279
9306,16,,1635,c. d' Antonio Vico,41.54909973,2.08463032
9308,22,,1635,c. d' Antonio Vico,41.54912768,2.08485439
9312,31,,1074,c. de Larra,41.54918879,2.08549199
9316,17,,1074,c. de Larra,41.54877165,2.08558009
9318,13,,1074,c. de Larra,41.54868904,2.08559815
9349,29,,451,c. de Zorrilla,41.54979554,2.08442209
9360,17,,1635,c. d' Antonio Vico,41.54914568,2.08403846
9368,22,,516,c. de Turina,41.54956509,2.08377949
9365,14,,516,c. de Turina,41.54935978,2.08382234
9202,77,,1635,c. d' Antonio Vico,41.54950825,2.08693307
9248,50,,1115,c. de Joaquim Sorolla,41.54986921,2.08720199
9077,35,,1076,c. de La Palma,41.5454532,2.0867245
9083,29,,956,c. de Menorca,41.54575784,2.08714838
9099,47,,1331,c. d' Eivissa,41.54599195,2.08639109
9110,30,,1181,c. de Gran Canària,41.54599364,2.08728498
9128,19,,1076,c. de La Palma,41.5460753,2.08616713
9140,9,,1115,c. de Joaquim Sorolla,41.54815867,2.08726903
9142,5,,1115,c. de Joaquim Sorolla,41.54807768,2.08722621
9154,54,,1635,c. d' Antonio Vico,41.54934937,2.08662843
9166,27,,1115,c. de Joaquim Sorolla,41.54897364,2.08724154
9184,37,,1165,c. de Gustavo Adolfo Bécquer,41.55046578,2.08633514
9185,35,,1165,c. de Gustavo Adolfo Bécquer,41.55045093,2.08640945
9186,33,,1165,c. de Gustavo Adolfo Bécquer,41.55043977,2.0864653
9190,59,,1115,c. de Joaquim Sorolla,41.55021906,2.08697
9215,50,,1093,c. de Juan Valera,41.5499704,2.08633059
9217,22,,1165,c. de Gustavo Adolfo Bécquer,41.55046734,2.08702974
9234,72,,1635,c. d' Antonio Vico,41.54944736,2.08740745
9260,28,,1074,c. de Larra,41.54916816,2.08565135
9059,135,,1009,c. de Malta,41.54528477,2.08571608
9132,86,,949,pgon. dels Merinals,41.54340179,2.08767221
9266,48,,1635,c. d' Antonio Vico,41.54930566,2.086279
9284,4,,1074,c. de Larra,41.54843263,2.08581254
9293,20,,1074,c. de Larra,41.54892269,2.08570507
9294,22,,1074,c. de Larra,41.54896249,2.08569635
9296,5,,1093,c. de Juan Valera,41.54848047,2.08649542
9309,24,,1635,c. d' Antonio Vico,41.5491614,2.08512445
9311,28,,1635,c. d' Antonio Vico,41.54919639,2.08540465
9325,380,,542,ctra. de Terrassa,41.54844686,2.08548015
9343,41,,451,c. de Zorrilla,41.5502218,2.0843299
9345,37,,451,c. de Zorrilla,41.55008052,2.08435998
9364,12,,516,c. de Turina,41.54927376,2.08383938
9378,45,,451,c. de Zorrilla,41.55050863,2.08426915
9380,16,,1209,c. de García Lorca,41.55036955,2.08423401
9401,15,,1209,c. de García Lorca,41.55040119,2.08548555
9411,61,,1093,c. de Juan Valera,41.5501282,2.08614177
9428,47,,1635,c. d' Antonio Vico,41.54934664,2.08565509
9440,33,,1209,c. de García Lorca,41.55028421,2.08450069
9442,42,,451,c. de Zorrilla,41.5501008,2.08450883
9492,19,,457,c. de Wagner,41.54964533,2.08211535
9495,426,,542,ctra. de Terrassa,41.54947819,2.08170694
9496,428,,542,ctra. de Terrassa,41.54949328,2.08164871
9513,7,,1581,c. de Beethoven,41.54992513,2.08245511
9516,3,,1581,c. de Beethoven,41.54984143,2.08237489
9520,24,,457,c. de Wagner,41.54986709,2.0820722
9543,15,,1443,c. de Chopin,41.55042343,2.08218402
9553,16,,1581,c. de Beethoven,41.55030759,2.08298366
9541,21,,1443,c. de Chopin,41.55036656,2.08241561
9581,44,,1443,c. de Chopin,41.54982407,2.08308952
9588,13,,847,c. de Palestrina,41.54950988,2.08288318
9592,6,,457,c. de Wagner,41.54955701,2.08262605
9604,3,,457,c. de Wagner,41.54946459,2.08261389
9605,1,,457,c. de Wagner,41.54943345,2.08267137
9609,412,,542,ctra. de Terrassa,41.54928388,2.0824103
9610,410,,542,ctra. de Terrassa,41.54926572,2.08246763
9619,9,,1443,c. de Chopin,41.55057347,2.08187044
9620,7,,1443,c. de Chopin,41.55058566,2.08183969
9621,5,,1443,c. de Chopin,41.55061007,2.08177793
9627,21,,1123,c. de Johann Sebastian Bach,41.55009038,2.08176926
9651,18,,1331,c. d' Eivissa,41.54652381,2.08725416
8545,95,,992,c. de les Mares de la Plaça de Maig,41.56276555,2.06895621
8548,101,,992,c. de les Mares de la Plaça de Maig,41.56285497,2.06851484
8557,21,,1332,c. d' Einstein,41.55719658,2.07370843
8582,16,,1210,c. de Gandhi,41.55707251,2.07544165
8584,28,,1210,c. de Gandhi,41.55743545,2.07485237
8593,41,,1111,c. de John Lennon,41.5579497,2.07517716
8607,19,,532,c. de Tolstoi,41.55813777,2.07515337
8625,19,,1558,c. de Bertrand Russell,41.5565539,2.07540371
8660,74,,825,av. de la Pau,41.55601014,2.07184154
8670,24,,992,c. de les Mares de la Plaça de Maig,41.56029536,2.07356734
8678,72,,992,c. de les Mares de la Plaça de Maig,41.56214327,2.07092323
8691,35,,1023,c. de Luthuli,41.56097152,2.070855
8705,67,,992,c. de les Mares de la Plaça de Maig,41.56198547,2.0709285
8708,83,,992,c. de les Mares de la Plaça de Maig,41.56250914,2.06978915
8711,72,,869,c. d' Olof Palme,41.56048903,2.06966735
8715,54,,869,c. d' Olof Palme,41.56020171,2.07083303
8732,41,,992,c. de les Mares de la Plaça de Maig,41.56097026,2.07273356
8735,18,,1688,c. d' Albéniz,41.55013407,2.08111657
8746,2,,1688,c. d' Albéniz,41.54976371,2.08083844
8754,16,,1688,c. d' Albéniz,41.55009268,2.08108283
8758,2,,1310,c. d' Eslava,41.55021628,2.08093017
8761,1,,1688,c. d' Albéniz,41.54985384,2.08067543
8767,4,,594,c. de Sarasate,41.55025827,2.08015082
8782,24,,1688,c. d' Albéniz,41.55037766,2.08131402
8784,28,,1688,c. d' Albéniz,41.55045664,2.08137902
8787,9,,1548,c. de la Bòbila,41.54890556,2.08157098
8793,23,,1548,c. de la Bòbila,41.54872277,2.08114374
8795,27,,1548,c. de la Bòbila,41.54865358,2.0809831
8817,30,,1548,c. de la Bòbila,41.54867084,2.08071822
8821,38,,1548,c. de la Bòbila,41.54855603,2.08045579
8825,8,,878,c. Nou,41.54987668,2.07756219
8832,9,,878,c. Nou,41.54976657,2.07762371
8834,5,,878,c. Nou,41.54983684,2.07776199
8839,46,,878,c. Nou,41.54926897,2.07636241
10292,21,,495,c. del Vallespir,41.56378615,2.08706457
9570,45,,1443,c. de Chopin,41.54990679,2.08312043
9552,14,,1581,c. de Beethoven,41.5502558,2.08292993
9439,41,,1093,c. de Juan Valera,41.54953087,2.08627118
9406,71,,1093,c. de Juan Valera,41.55041551,2.08607873
9408,67,,1093,c. de Juan Valera,41.55027038,2.08611063
9410,63,,1093,c. de Juan Valera,41.55016815,2.08613303
9412,59,,1093,c. de Juan Valera,41.55008622,2.08615099
9420,59,,1635,c. d' Antonio Vico,41.54940027,2.08608871
9432,40,,1074,c. de Larra,41.54979298,2.08551554
9456,49,,1074,c. de Larra,41.54988425,2.08533701
9464,37,,1074,c. de Larra,41.54949847,2.08542046
9478,30,,451,c. de Zorrilla,41.5499722,2.08453699
9885,77,,1165,c. de Gustavo Adolfo Bécquer,41.55102846,2.08355033
9511,30,,1443,c. de Chopin,41.55008483,2.08260954
9512,9,,1581,c. de Beethoven,41.54998248,2.08251008
9536,31,,1443,c. de Chopin,41.55019227,2.08259984
9547,34,,1123,c. de Johann Sebastian Bach,41.55057079,2.08227901
9548,36,,1123,c. de Johann Sebastian Bach,41.55061488,2.08231079
9555,43,,516,c. de Turina,41.5505332,2.08340767
9608,3,,847,c. de Palestrina,41.5493227,2.08258396
9618,11,,1443,c. de Chopin,41.5505412,2.0819524
9631,25,,1331,c. d' Eivissa,41.54639281,2.08731543
9632,19,,1331,c. d' Eivissa,41.54648305,2.08752328
9633,17,,1331,c. d' Eivissa,41.54650064,2.08756348
9649,14,,1331,c. d' Eivissa,41.54658857,2.08740392
9666,3,,1245,c. de Formentera,41.54734425,2.08699238
9689,355,,542,ctra. de Terrassa,41.54781335,2.08672888
9703,28,,577,c. de Sicília,41.54762321,2.08596897
9727,37,,1276,c. de Fernando Poo,41.54672125,2.08650078
9728,35,,1276,c. de Fernando Poo,41.54674801,2.08656407
9731,33,,1276,c. de Fernando Poo,41.54676308,2.08659967
9747,38,,1276,c. de Fernando Poo,41.54677563,2.08631712
9775,38,,1407,c. de Conillera,41.54791033,2.08400916
9820,4,,1455,c. de Cató,41.55501792,2.08442046
9838,1,,1398,c. de Corneli Nepos,41.55514597,2.08656103
9841,26,,1374,c. de Demòstenes,41.5550267,2.08635557
9844,32,,1374,c. de Demòstenes,41.55490429,2.08600027
9878,14,,680,pl. de Ròmul,41.5519053,2.08410681
9888,67,,1165,c. de Gustavo Adolfo Bécquer,41.55094966,2.08394434
9904,110,,1165,c. de Gustavo Adolfo Bécquer,41.55177486,2.08266172
9916,43,,775,c. de Plaute,41.5514227,2.0833936
9926,80,,1165,c. de Gustavo Adolfo Bécquer,41.55116897,2.08355108
9941,58,,1165,c. de Gustavo Adolfo Bécquer,41.55099287,2.08442064
9951,42,,1165,c. de Gustavo Adolfo Bécquer,41.55084191,2.08516656
9958,13,,658,c. de Sal·lusti,41.55104202,2.08509673
9966,58,,451,c. de Zorrilla,41.55082045,2.08435767
9969,9,,475,c. de Víctor Català,41.55080324,2.08463416
9981,3,,587,c. de Schubert,41.55074356,2.0830593
9982,42,,1123,c. de Johann Sebastian Bach,41.55073162,2.08239484
9988,23,,1026,c. de Lurdes,41.55158673,2.08202778
9993,13,,1026,c. de Lurdes,41.55149434,2.08242459
10052,10,,475,c. de Víctor Català,41.55071196,2.08478613
10071,15,,794,c. de Petrarca,41.55587266,2.08668002
10073,11,,794,c. de Petrarca,41.55570556,2.0867827
10076,7,,794,c. de Petrarca,41.55554703,2.0868801
10089,26,,1398,c. de Corneli Nepos,41.55615855,2.08610944
10092,36,,1398,c. de Corneli Nepos,41.55658224,2.08584984
10094,32,,1398,c. de Corneli Nepos,41.55641298,2.08595352
10095,28,,1398,c. de Corneli Nepos,41.55624579,2.08605601
10099,9,,572,c. de Sòcrates,41.55720022,2.08553577
10115,99,,1674,via Alexandra,41.55797212,2.08598057
10117,2,,572,c. de Sòcrates,41.55777217,2.08601443
10142,1,,1262,c. de Flavi,41.5564858,2.08686321
10148,21,,774,c. de Plini el Vell,41.55750453,2.08460544
10152,22,,773,c. de Plutarc,41.5563502,2.08473372
10162,15,,1398,c. de Corneli Nepos,41.55631734,2.08583997
10175,10,,796,c. de Persi,41.55620428,2.08551282
10187,20,,745,c. de Prudenci,41.55532837,2.0857884
10200,59,,774,c. de Plini el Vell,41.55643904,2.08293262
10222,27,,1085,c. de Juvenal,41.55621486,2.08420311
10228,44,,773,c. de Plutarc,41.55580443,2.08373288
10239,13,,1085,c. de Juvenal,41.55554765,2.08461161
10245,14,,1455,c. de Cató,41.55538584,2.08419504
10250,55,,773,c. de Plutarc,41.5556212,2.08358144
10251,53,,773,c. de Plutarc,41.55564649,2.08367741
10272,18,,495,c. del Vallespir,41.56356939,2.08737366
10291,23,,495,c. del Vallespir,41.56383495,2.08703839
9418,39,,1093,c. de Juan Valera,41.54943824,2.08629166
9949,40,,1165,c. de Gustavo Adolfo Bécquer,41.55081379,2.08529329
10297,52,,674,c. del Rosselló,41.56352198,2.08680807
10314,159,,965,av. de Matadepera,41.5680539,2.08711036
10320,12,,736,c. del Puig Major,41.5675277,2.08733834
10322,16,,736,c. del Puig Major,41.5676064,2.08722216
10334,19,,736,c. del Puig Major,41.56760852,2.08701513
10351,28,,1694,c. de les Agudes,41.5674979,2.08661117
10358,25,,1694,c. de les Agudes,41.56741994,2.08652979
10359,23,,1694,c. de les Agudes,41.56737563,2.08659496
10363,15,,1694,c. de les Agudes,41.56719545,2.08685993
10366,9,,1694,c. de les Agudes,41.56707414,2.08703833
10369,3,,1694,c. de les Agudes,41.56694534,2.08722785
10375,8,,1515,c. del Cadí,41.56682037,2.0869642
10380,18,,1515,c. del Cadí,41.5669992,2.08670232
10391,21,,1515,c. del Cadí,41.56700761,2.08649241
10416,13,,919,c. de Monteixo,41.56671324,2.08615651
10420,3,,919,c. de Monteixo,41.56648484,2.08633916
10423,8,,1569,c. de Benavarri,41.56632884,2.0862671
10432,36,,930,c. de la Mola,41.56668634,2.08564418
10436,24,,930,c. de la Mola,41.56629922,2.08600161
10442,177,,965,av. de Matadepera,41.5686527,2.08623714
10446,161,,965,av. de Matadepera,41.56816861,2.08694361
10448,42,,736,c. del Puig Major,41.56820649,2.08633458
10452,165,,965,av. de Matadepera,41.56827731,2.08678497
10455,51,,736,c. del Puig Major,41.56833413,2.08595
10475,63,,919,c. de Monteixo,41.56794686,2.08513553
10477,40,,816,c. del Pedraforca,41.56721288,2.08563287
10517,54,,894,c. de Nàpols,41.56527307,2.08704959
10522,29,,894,c. de Nàpols,41.56522089,2.08729729
10536,60,,495,c. del Vallespir,41.56479097,2.08671246
10548,8,,920,c. del Montcau,41.56621239,2.08724145
10552,160,,965,av. de Matadepera,41.5685268,2.08700657
10554,162,,965,av. de Matadepera,41.56855862,2.08695959
10562,7,,743,c. de Prullans,41.56819694,2.08329993
10567,1,,1543,c. de la Bonaigua,41.56849785,2.08721159
10581,185,,965,av. de Matadepera,41.56893697,2.08582427
10596,170,,965,av. de Matadepera,41.56880694,2.08659361
10598,194,,965,av. de Matadepera,41.56937067,2.08576862
10625,13,,1651,c. d' Aneto,41.56926813,2.08683457
10636,62,,1012,c. de la Maladeta,41.56902311,2.08704878
10652,4,,1058,pl. de Llívia,41.5700344,2.08359265
10657,4,,974,c. de Martinet,41.56960343,2.08149116
10681,34,,1124,c. de Joan Sallent,41.57268605,2.08309982
10690,42,,706,c. de Ricard Marlet,41.57219006,2.08225697
10714,50,,706,c. de Ricard Marlet,41.57238503,2.08196794
10720,32,,1079,ptge. de la Font del Saüc,41.57314239,2.08362331
10731,20,,1124,c. de Joan Sallent,41.57199793,2.08411988
10742,30,,1039,c. de Lluís Parcerisa,41.57182254,2.08359203
10743,28,,1039,c. de Lluís Parcerisa,41.57178768,2.0836439
10747,20,,1039,c. de Lluís Parcerisa,41.57164674,2.08385333
10757,28,,706,c. de Ricard Marlet,41.57156619,2.08318393
10759,24,,706,c. de Ricard Marlet,41.57149248,2.083293
10761,20,,706,c. de Ricard Marlet,41.57142021,2.0833998
10762,18,,706,c. de Ricard Marlet,41.57138401,2.08345339
10767,8,,706,c. de Ricard Marlet,41.57106922,2.08391857
10784,22,,1389,c. de Costabona,41.57067342,2.08147473
10808,218,,965,av. de Matadepera,41.57045004,2.08435065
10828,20,,623,c. de Santiago Segura,41.57106646,2.08712183
10836,7,,1610,pl. de l' Assemblea de Catalunya,41.57078223,2.08512739
10843,98,,1163,c. de l' Himàlaia,41.57364128,2.08722168
10852,16,,1079,ptge. de la Font del Saüc,41.57334252,2.08441334
9658,13,,1245,c. de Formentera,41.54724877,2.08677059
9660,11,,1245,c. de Formentera,41.54726594,2.08681052
9662,12,,1276,c. de Fernando Poo,41.54706002,2.08698471
9667,6,,1276,c. de Fernando Poo,41.54712052,2.08712803
9683,367,,542,ctra. de Terrassa,41.54799762,2.08604673
9688,357,,542,ctra. de Terrassa,41.54783949,2.08663218
9699,20,,577,c. de Sicília,41.5475373,2.0862947
9704,30,,577,c. de Sicília,41.54764847,2.08587558
9713,15,,1267,pl. de les Filipines,41.54739271,2.0873645
9714,20,,1181,c. de Gran Canària,41.54626957,2.08707141
9723,45,,1276,c. de Fernando Poo,41.54665408,2.086342
9725,41,,1276,c. de Fernando Poo,41.54670113,2.08643937
9735,30,,1331,c. d' Eivissa,41.54629558,2.08672955
9746,40,,1276,c. de Fernando Poo,41.54674963,2.0862558
9748,36,,1276,c. de Fernando Poo,41.54679504,2.0863629
9758,27,,577,c. de Sicília,41.54725678,2.08643378
9785,20,,1407,c. de Conillera,41.54771933,2.08450782
9788,26,,1407,c. de Conillera,41.54779276,2.08434956
9807,14,,621,c. de Sant Isidor,41.55468532,2.086789
9808,15,,1374,c. de Demòstenes,41.55494963,2.08650325
9813,39,,853,c. d' Ovidi,41.55495722,2.08694054
9817,32,,745,c. de Prudenci,41.55496297,2.08472887
9822,5,,1455,c. de Cató,41.55503723,2.08426444
9823,3,,1455,c. de Cató,41.55497899,2.08430054
9835,21,,745,c. de Prudenci,41.55508254,2.08545057
9858,29,,853,c. d' Ovidi,41.55439241,2.08728744
11092,33,,1624,c. de l' Argentina,41.54399719,2.09074214
9899,60,,516,c. de Turina,41.55092862,2.08347988
10874,79,,1620,c. d' Armand Obiols,41.57414654,2.0817641
10892,106,,1620,c. d' Armand Obiols,41.57514002,2.08134535
10916,7,,1661,pl. de les Alzines,41.57622471,2.08544445
10917,6,,1661,pl. de les Alzines,41.57628778,2.08561827
10921,8,,671,pl. dels Roures,41.57580892,2.08507188
10933,24,,765,c. del Portal de la Floresta,41.57583758,2.0862007
11337,35,,938,c. de Miquel Àngel,41.54851586,2.08808546
10996,16,,1344,ptge. de sa Dragonera,41.54102528,2.08979941
11034,13,,1344,ptge. de sa Dragonera,41.54066905,2.08991466
11062,41,,1658,c. d' Amèrica,41.54398023,2.09259282
11063,57,,1658,c. d' Amèrica,41.54322441,2.09248109
11070,97,,949,pgon. dels Merinals,41.54279646,2.08895746
9868,4,,680,pl. de Ròmul,41.55260269,2.0834588
9876,12,,680,pl. de Ròmul,41.55172214,2.08443592
11131,51,,1220,c. de Fuerteventura,41.54510998,2.09089156
10887,68,,1693,c. d' Agustí Bartra,41.57513479,2.08227986
11109,18,,1382,c. de Cuba,41.5453206,2.09237775
11522,296,,542,ctra. de Terrassa,41.54691419,2.09101201
11145,39,,949,pgon. dels Merinals,41.54432617,2.08936092
11154,82,,949,pgon. dels Merinals,41.54368897,2.08819224
11161,33,,1011,c. de Mallorca,41.54561427,2.08810683
11164,27,,1011,c. de Mallorca,41.54570929,2.08832453
11165,19,,1011,c. de Mallorca,41.54581737,2.08857207
11166,17,,1011,c. de Mallorca,41.54586652,2.08868609
11184,8,,549,c. de Tenerife,41.54573189,2.08939354
11189,18,,549,c. de Tenerife,41.54556465,2.08900806
11205,21,,956,c. de Menorca,41.5461104,2.08795867
11209,6,,1011,c. de Mallorca,41.54609828,2.08895423
11210,8,,1011,c. de Mallorca,41.54605455,2.08885506
11211,10,,1011,c. de Mallorca,41.5460383,2.08881812
11216,20,,1011,c. de Mallorca,41.54586781,2.08842825
11223,31,,1181,c. de Gran Canària,41.54592266,2.08790927
11226,22,,956,c. de Menorca,41.54617042,2.08782085
11237,48,,549,c. de Tenerife,41.54501483,2.08775587
11272,38,,938,c. de Miquel Àngel,41.54844219,2.08859799
11282,10,,901,ptge. de Mozart,41.54824609,2.08883623
11285,2,,1021,c. de Madrazo,41.54764956,2.08854354
11301,11,,1021,c. de Madrazo,41.54810683,2.08828781
11308,350,,542,ctra. de Terrassa,41.54772259,2.0881814
11310,354,,542,ctra. de Terrassa,41.547777,2.08798001
11325,41,,1021,c. de Madrazo,41.54924062,2.08803529
11330,31,,1021,c. de Madrazo,41.54894587,2.08810003
11333,25,,1021,c. de Madrazo,41.5487582,2.08814128
11361,61,,1189,c. de Goethe,41.55004842,2.08818351
11369,51,,1189,c. de Goethe,41.54985316,2.08841794
11370,49,,1189,c. de Goethe,41.54979494,2.08845524
11406,49,,938,c. de Miquel Àngel,41.54862317,2.08870604
11421,48,,1021,c. de Madrazo,41.5491735,2.08821156
11423,58,,1021,c. de Madrazo,41.54941583,2.0881588
11451,12,,1187,c. de Góngora,41.54648864,2.09338455
11462,17,,1162,c. d' Homer,41.54673709,2.09279728
11499,13,,1137,c. de Joan Alcover,41.54684115,2.09223526
11510,276,,542,ctra. de Terrassa,41.5467535,2.09160504
11523,4,,1390,c. de Costa i Llobera,41.54711521,2.09101695
11525,6,,1390,c. de Costa i Llobera,41.54715902,2.09103753
11082,105,,949,pgon. dels Merinals,41.54253305,2.08949099
10962,125,,949,pgon. dels Merinals,41.54148236,2.08917318
11083,124,,949,pgon. dels Merinals,41.54179782,2.08890156
11079,111,,949,pgon. dels Merinals,41.54203523,2.08885867
11527,10,,1390,c. de Costa i Llobera,41.54722972,2.09107084
11537,18,,1042,c. de Lluís Millet,41.547733,2.09000538
11542,28,,1042,c. de Lluís Millet,41.54782778,2.09025204
11557,21,,1390,c. de Costa i Llobera,41.54749297,2.09103038
11558,19,,1390,c. de Costa i Llobera,41.5474581,2.09101391
11562,11,,1390,c. de Costa i Llobera,41.54729893,2.09093893
11565,5,,1390,c. de Costa i Llobera,41.54716114,2.09087403
11567,1,,1390,c. de Costa i Llobera,41.54702507,2.09080885
11587,39,,1376,c. de Dant,41.54817645,2.0902773
11588,37,,1376,c. de Dant,41.5481404,2.09030159
11590,33,,1376,c. de Dant,41.54806852,2.09034961
11596,13,,1042,c. de Lluís Millet,41.54788613,2.0901102
11600,115,,578,c. de la Serralada,41.54878013,2.0901604
11602,46,,1376,c. de Dant,41.54859132,2.09015572
11607,103,,578,c. de la Serralada,41.54866962,2.09047641
11612,89,,578,c. de la Serralada,41.54852543,2.09091094
11615,49,,1042,c. de Lluís Millet,41.54834824,2.09129002
11623,31,,1042,c. de Lluís Millet,41.5481493,2.09078303
11624,37,,1042,c. de Lluís Millet,41.54820573,2.09092689
11625,29,,1042,c. de Lluís Millet,41.5480963,2.09064801
11635,93,,578,c. de la Serralada,41.54856224,2.09078196
11656,24,,1376,c. de Dant,41.54795914,2.09059095
11661,42,,1042,c. de Lluís Millet,41.54810017,2.09094703
11665,50,,1042,c. de Lluís Millet,41.54818467,2.09116199
11666,52,,1042,c. de Lluís Millet,41.54820499,2.09121384
11669,58,,1042,c. de Lluís Millet,41.5482622,2.09135934
11672,64,,1042,c. de Lluís Millet,41.54831787,2.09150098
11673,66,,1042,c. de Lluís Millet,41.54833798,2.09155214
11680,61,,578,c. de la Serralada,41.54849168,2.09188639
11683,13,,776,c. de Plató,41.54817694,2.09203712
11687,23,,582,c. de Sèneca,41.54800391,2.09182485
11694,9,,582,c. de Sèneca,41.54778895,2.09127424
11715,43,,578,c. de la Serralada,41.54848317,2.09249944
11723,29,,578,c. de la Serralada,41.54841971,2.09293937
11726,31,,582,c. de Sèneca,41.54810354,2.0922192
11762,14,,1132,c. de Joan Boscà,41.54707165,2.09283295
11765,20,,1132,c. de Joan Boscà,41.54709757,2.09302731
11766,31,,1187,c. de Góngora,41.54707367,2.09327007
11773,14,,1162,c. d' Homer,41.54687738,2.09307516
11774,16,,1162,c. d' Homer,41.54686424,2.09301968
11777,22,,1162,c. d' Homer,41.54685815,2.09282062
11787,13,,956,c. de Menorca,41.54623243,2.08823705
11790,7,,956,c. de Menorca,41.5463297,2.08845889
11801,11,,1331,c. d' Eivissa,41.5465959,2.08778025
11814,12,,956,c. de Menorca,41.546325,2.0881765
11817,18,,956,c. de Menorca,41.54623247,2.08796289
11820,26,,1267,pl. de les Filipines,41.54696631,2.08771647
11823,29,,1267,pl. de les Filipines,41.54684211,2.0879044
11830,339,,542,ctra. de Terrassa,41.54747242,2.08800591
11858,39,,871,pl. d' Olímpia,41.55406532,2.09321975
11867,55,,839,av. dels Paraires,41.55457995,2.09345182
11872,65,,839,av. dels Paraires,41.55430124,2.09349042
11896,3,,1399,pl. de Copèrnic,41.55377133,2.0899637
11919,8,,860,c. d' Orlando Enamorat,41.55329287,2.08840401
11920,6,,860,c. d' Orlando Enamorat,41.55326782,2.08834261
11921,4,,860,c. d' Orlando Enamorat,41.55325116,2.0882826
11926,12,,730,c. del Quixot,41.55449671,2.08779531
11929,18,,730,c. del Quixot,41.55455823,2.08797532
11938,11,,537,c. del Tirant lo Blanc,41.5541412,2.08802057
11939,13,,537,c. del Tirant lo Blanc,41.55415711,2.08806631
11942,19,,537,c. del Tirant lo Blanc,41.55422368,2.08826108
11970,4,,747,c. de Pròsper de Bofarull,41.55864374,2.09337694
11995,28,,896,c. de Muntaner,41.55913121,2.09257937
11997,40,,896,c. de Muntaner,41.55884912,2.0922733
11998,72,,1604,via Aurèlia,41.55894071,2.09183074
12021,19,,1272,c. de Ferrer i Guàrdia,41.55889735,2.0905719
12024,13,,1272,c. de Ferrer i Guàrdia,41.55881747,2.09084683
12027,7,,1272,c. de Ferrer i Guàrdia,41.5587469,2.09104405
12038,60,,961,c. de Mauritània,41.55865922,2.09040108
12046,53,,1272,c. de Ferrer i Guàrdia,41.55946181,2.08907105
12062,84,,961,c. de Mauritània,41.55905221,2.0893174
12074,115,,1604,via Aurèlia,41.55953503,2.08956138
12080,103,,1604,via Aurèlia,41.55938675,2.08996837
12095,63,,961,c. de Mauritània,41.55853064,2.09023322
12110,59,,1357,c. del Doctor Relat,41.55873742,2.08889065
12116,47,,1357,c. del Doctor Relat,41.55858402,2.08925883
12124,40,,1608,c. d' Atlanta,41.55768054,2.09104311
12126,44,,1608,c. d' Atlanta,41.55756685,2.0910148
12130,52,,1608,c. d' Atlanta,41.55735171,2.09096151
12135,6,,802,c. de Pere Monistrol,41.55772502,2.09071281
12137,10,,802,c. de Pere Monistrol,41.55761158,2.09068441
12141,18,,802,c. de Pere Monistrol,41.55739334,2.0906058
12147,30,,802,c. de Pere Monistrol,41.55683258,2.09046794
12157,50,,802,c. de Pere Monistrol,41.55628776,2.09035956
12159,54,,802,c. de Pere Monistrol,41.5561765,2.09033248
12190,18,,579,c. de la Serra d'en Camaró,41.55533717,2.08862254
12194,91,,1627,c. de l' Arcàdia,41.55707199,2.08902714
12208,21,,674,c. del Rosselló,41.5639482,2.0886046
12211,15,,674,c. del Rosselló,41.56409501,2.08908298
12216,33,,1653,c. d' Andorra,41.56388004,2.08924708
12412,43,,1566,c. de Berenguer el Gran,41.56232136,2.08913091
12237,54,,881,c. del Nord,41.56282907,2.08925665
12240,2,,1447,c. de la Cerdanya,41.56312608,2.08885913
12257,39,,674,c. del Rosselló,41.56367815,2.0877222
12258,37,,674,c. del Rosselló,41.56370026,2.08779443
12265,27,,1447,c. de la Cerdanya,41.56376456,2.08834101
12273,11,,1447,c. de la Cerdanya,41.56340929,2.08853385
12283,94,,881,c. del Nord,41.56320809,2.08830564
12286,100,,881,c. del Nord,41.56331621,2.08824582
12296,134,,881,c. del Nord,41.56299399,2.08819645
12318,46,,1447,c. de la Cerdanya,41.5642189,2.08826287
12321,39,,1447,c. de la Cerdanya,41.56409339,2.08816333
12323,35,,1447,c. de la Cerdanya,41.56401328,2.08820684
12348,27,,965,av. de Matadepera,41.56412222,2.09027184
12350,23,,965,av. de Matadepera,41.56402848,2.09032262
12355,2,,1394,c. de Còrsega,41.56352457,2.09056315
12376,32,,1653,c. d' Andorra,41.56376945,2.08947653
12384,17,,1593,c. de Balaguer,41.56423079,2.09142751
12394,2,,998,pl. de la Marca Hispànica,41.56258172,2.09236406
12400,37,,633,pg. de Sant Bernat,41.56353427,2.09152192
12401,35,,633,pg. de Sant Bernat,41.5635081,2.09175813
12419,27,,993,c. de la Mare de les Aigües,41.56026325,2.09149562
12429,13,,993,c. de la Mare de les Aigües,41.56072094,2.09197798
12430,25,,1038,c. de Lluís Vives,41.56068901,2.09230408
12433,19,,1038,c. de Lluís Vives,41.56056538,2.0925061
12439,2,,1562,c. de Bernat Boades,41.56032048,2.0928286
12454,1,,1269,c. de la Fidelitat,41.56151214,2.093012
12463,66,,1038,c. de Lluís Vives,41.5609031,2.09219614
12476,34,,1038,c. de Lluís Vives,41.56021169,2.09333498
12479,40,,1038,c. de Lluís Vives,41.56033944,2.09312462
12480,42,,1038,c. de Lluís Vives,41.56040457,2.0930173
12483,52,,1038,c. de Lluís Vives,41.56059811,2.09269848
12486,58,,1038,c. de Lluís Vives,41.56072801,2.09248458
12500,46,,633,pg. de Sant Bernat,41.56398582,2.09129275
12506,2,,555,c. de Tarragona,41.56424658,2.09104377
12516,6,,736,c. del Puig Major,41.56739727,2.0875306
12522,8,,662,c. de les Salenques,41.56701523,2.08778205
12524,10,,662,c. de les Salenques,41.56699217,2.08774777
12536,9,,1689,c. d' Albarrasí,41.56597453,2.08778868
12540,1,,1689,c. d' Albarrasí,41.56570075,2.08793647
12543,30,,894,c. de Nàpols,41.56548446,2.08774937
12548,40,,894,c. de Nàpols,41.56539087,2.08743987
12549,42,,894,c. de Nàpols,41.56537311,2.08738099
12557,7,,1221,pl. de la Fuensanta,41.56545217,2.08811297
8870,5,,1127,c. de Joan Llongueras,41.5510742,2.0809422
8847,30,,878,c. Nou,41.54949021,2.07679831
8848,28,,878,c. Nou,41.54951654,2.07685022
8854,13,,892,c. de Narcís Casanoves,41.54976893,2.07712904
8898,8,,1558,c. de Bertrand Russell,41.55672524,2.07615859
8907,21,,1648,c. d' Anne Frank,41.55848235,2.07618678
8911,8,,1648,c. d' Anne Frank,41.55752467,2.0765093
8944,8,,974,c. de Martinet,41.56936598,2.08125106
8954,1,,845,c. de les Palmeres,41.57313787,2.08079131
8963,26,,1693,c. d' Agustí Bartra,41.57429005,2.08044142
8966,8,,1693,c. d' Agustí Bartra,41.57397003,2.0799465
8973,4,,744,c. de Prudenci Bertrana,41.57407994,2.07965664
8975,8,,744,c. de Prudenci Bertrana,41.57415208,2.07976821
8991,4,,1097,c. de Josep Pla,41.57423611,2.07943941
8992,24,,1097,c. de Josep Pla,41.57458311,2.07997657
8997,48,,1097,c. de Josep Pla,41.57500255,2.08073268
9003,24,,744,c. de Prudenci Bertrana,41.57461951,2.08053247
9010,93,,1620,c. d' Armand Obiols,41.57491245,2.08115038
9015,32,,1693,c. d' Agustí Bartra,41.5744313,2.08069674
9018,44,,1693,c. d' Agustí Bartra,41.57461848,2.08104729
12575,55,,1653,c. d' Andorra,41.56449508,2.08891827
9058,137,,1009,c. de Malta,41.54523497,2.08576041
9060,133,,1009,c. de Malta,41.545318,2.08568532
9947,36,,1165,c. de Gustavo Adolfo Bécquer,41.55072186,2.0857506
9062,129,,1009,c. de Malta,41.54539542,2.08561536
9079,37,,956,c. de Menorca,41.54564041,2.08688096
9090,32,,1011,c. de Mallorca,41.54545616,2.08747407
9104,39,,1331,c. d' Eivissa,41.54611044,2.08666463
